{
    "stations": [
      {
        "empty_slots": 39,
        "extra": {
          "address": null,
          "last_updated": 1597328251,
          "renting": 1,
          "returning": 1,
          "uid": "3328"
        },
        "free_bikes": 0,
        "id": "46a983722ee1f51813a6a3eb6534a6e4",
        "latitude": 40.795,
        "longitude": -73.9645,
        "name": "W 100 St & Manhattan Ave",
        "timestamp": "2020-08-13T14:38:37.398000Z"
      },
      {
        "empty_slots": 24,
        "extra": {
          "address": null,
          "last_updated": 1597327678,
          "renting": 1,
          "returning": 1,
          "uid": "3724"
        },
        "free_bikes": 14,
        "id": "81872dcff5f0e5f1e042aafcc0bab6fd",
        "latitude": 40.7667405590595,
        "longitude": -73.9790689945221,
        "name": "7 Ave & Central Park South",
        "timestamp": "2020-08-13T14:38:37.412000Z"
      },
      {
        "empty_slots": 15,
        "extra": {
          "address": null,
          "last_updated": 1597326502,
          "renting": 1,
          "returning": 1,
          "uid": "3571"
        },
        "free_bikes": 9,
        "id": "1ce1f825efba7112c62e0b05624fa501",
        "latitude": 40.676368,
        "longitude": -73.952918,
        "name": "Bedford Ave & Bergen St",
        "timestamp": "2020-08-13T14:38:37.415000Z"
      },
      {
        "empty_slots": 12,
        "extra": {
          "address": null,
          "last_updated": 1597328001,
          "renting": 1,
          "returning": 1,
          "uid": "3259"
        },
        "free_bikes": 14,
        "id": "740c8a4be0c3c8c3da8da2bda9ba0f87",
        "latitude": 40.74937024193277,
        "longitude": -73.99923384189606,
        "name": "9 Ave & W 28 St",
        "timestamp": "2020-08-13T14:38:37.424000Z"
      },
      {
        "empty_slots": 23,
        "extra": {
          "address": null,
          "last_updated": 1597329139,
          "renting": 1,
          "returning": 1,
          "uid": "3555"
        },
        "free_bikes": 3,
        "id": "75a634e2473d7e3abf789c09c44fdf26",
        "latitude": 40.751047,
        "longitude": -73.93797,
        "name": "28 St & 41 Ave",
        "timestamp": "2020-08-13T14:38:37.425000Z"
      },
      {
        "empty_slots": 8,
        "extra": {
          "address": null,
          "last_updated": 1597328051,
          "renting": 1,
          "returning": 1,
          "uid": "3554"
        },
        "free_bikes": 18,
        "id": "0693d133f78b3687e2fa1489cdb87b7f",
        "latitude": 40.7552433,
        "longitude": -73.9485678,
        "name": "Vernon Blvd & 41 Rd",
        "timestamp": "2020-08-13T14:38:37.426000Z"
      },
      {
        "empty_slots": 12,
        "extra": {
          "address": null,
          "last_updated": 1597328551,
          "renting": 1,
          "returning": 1,
          "uid": "3553"
        },
        "free_bikes": 25,
        "id": "fdb4831d3335a9aea380117ea4f4b81a",
        "latitude": 40.801694,
        "longitude": -73.957145,
        "name": "Frederick Douglass Blvd & W 112 St",
        "timestamp": "2020-08-13T14:38:37.428000Z"
      },
      {
        "empty_slots": 0,
        "extra": {
          "address": null,
          "last_updated": 1597327551,
          "renting": 1,
          "returning": 1,
          "uid": "3552"
        },
        "free_bikes": 39,
        "id": "d76408166f0663a383289a5d5d452c13",
        "latitude": 40.805973,
        "longitude": -73.964928,
        "name": "W 113 St & Broadway",
        "timestamp": "2020-08-13T14:38:37.433000Z"
      },
      {
        "empty_slots": 9,
        "extra": {
          "address": null,
          "last_updated": 1597326607,
          "renting": 1,
          "returning": 1,
          "uid": "3551"
        },
        "free_bikes": 14,
        "id": "678fea3bb3afe05788a35750358db726",
        "latitude": 40.795508,
        "longitude": -73.941606,
        "name": "3 Ave & E 112 St",
        "timestamp": "2020-08-13T14:38:37.434000Z"
      },
      {
        "empty_slots": 12,
        "extra": {
          "address": null,
          "last_updated": 1597327295,
          "renting": 1,
          "returning": 1,
          "uid": "3255"
        },
        "free_bikes": 6,
        "id": "7ca4ed0b4fba2b2fb259ba84bd43e2ad",
        "latitude": 40.7505853470215,
        "longitude": -73.9946848154068,
        "name": "8 Ave & W 31 St",
        "timestamp": "2020-08-13T14:38:37.437000Z"
      },
      {
        "empty_slots": 7,
        "extra": {
          "address": null,
          "last_updated": 1597329430,
          "renting": 1,
          "returning": 1,
          "uid": "3256"
        },
        "free_bikes": 14,
        "id": "ff16d37e30ac19a00d21e1d5d2d8032d",
        "latitude": 40.7277140777778,
        "longitude": -74.01129573583603,
        "name": "Pier 40 - Hudson River Park",
        "timestamp": "2020-08-13T14:38:37.440000Z"
      },
      {
        "empty_slots": 20,
        "extra": {
          "address": null,
          "last_updated": 1597327609,
          "renting": 1,
          "returning": 1,
          "uid": "3558"
        },
        "free_bikes": 7,
        "id": "032adb4e82f406f3e04c4b40c2f43e96",
        "latitude": 40.6794388,
        "longitude": -73.9680438,
        "name": "Bergen St & Vanderbilt Ave",
        "timestamp": "2020-08-13T14:38:37.441000Z"
      },
      {
        "empty_slots": 11,
        "extra": {
          "address": null,
          "last_updated": 1597326471,
          "renting": 1,
          "returning": 1,
          "uid": "344"
        },
        "free_bikes": 12,
        "id": "ca4f75006e50239fd4d3024e2effc750",
        "latitude": 40.6851443,
        "longitude": -73.95380904,
        "name": "Monroe St & Bedford Ave",
        "timestamp": "2020-08-13T14:38:37.448000Z"
      },
      {
        "empty_slots": 26,
        "extra": {
          "address": null,
          "last_updated": 1597329031,
          "renting": 1,
          "returning": 1,
          "uid": "3570"
        },
        "free_bikes": 5,
        "id": "387d971321c72e3ecba9ceaa2bfac75a",
        "latitude": 40.7557327,
        "longitude": -73.9236611,
        "name": "35 Ave & 37 St",
        "timestamp": "2020-08-13T14:38:37.449000Z"
      },
      {
        "empty_slots": 22,
        "extra": {
          "address": null,
          "last_updated": 1597328975,
          "renting": 1,
          "returning": 1,
          "uid": "346"
        },
        "free_bikes": 5,
        "id": "9df6386d8677d42c8ba69a15548e61a7",
        "latitude": 40.73652889,
        "longitude": -74.00618026,
        "name": "Bank St & Hudson St",
        "timestamp": "2020-08-13T14:38:37.452000Z"
      },
      {
        "empty_slots": 6,
        "extra": {
          "address": null,
          "last_updated": 1597328048,
          "renting": 1,
          "returning": 1,
          "uid": "347"
        },
        "free_bikes": 28,
        "id": "ae9a9c4ce9623b172f0ca91825aa0825",
        "latitude": 40.728846,
        "longitude": -74.008591,
        "name": "Greenwich St & W Houston St",
        "timestamp": "2020-08-13T14:38:37.454000Z"
      },
      {
        "empty_slots": 21,
        "extra": {
          "address": null,
          "last_updated": 1597327183,
          "renting": 1,
          "returning": 1,
          "uid": "340"
        },
        "free_bikes": 5,
        "id": "72394bda9e3303d03667935bc0ecdc47",
        "latitude": 40.71269042,
        "longitude": -73.98776323,
        "name": "Madison St & Clinton St",
        "timestamp": "2020-08-13T14:38:37.464000Z"
      },
      {
        "empty_slots": 3,
        "extra": {
          "address": null,
          "last_updated": 1597329137,
          "renting": 1,
          "returning": 1,
          "uid": "341"
        },
        "free_bikes": 16,
        "id": "c3a53bb0015652fad12cffb1534c029a",
        "latitude": 40.71782143,
        "longitude": -73.97628939,
        "name": "Stanton St & Mangin St",
        "timestamp": "2020-08-13T14:38:37.465000Z"
      },
      {
        "empty_slots": 1,
        "extra": {
          "address": null,
          "last_updated": 1597326402,
          "renting": 1,
          "returning": 1,
          "uid": "343"
        },
        "free_bikes": 20,
        "id": "2d5ca34d7071296701458ee1a4bf12cd",
        "latitude": 40.69794,
        "longitude": -73.96986848,
        "name": "Clinton Ave & Flushing Ave",
        "timestamp": "2020-08-13T14:38:37.468000Z"
      },
      {
        "empty_slots": 47,
        "extra": {
          "address": null,
          "last_updated": 1597327707,
          "renting": 1,
          "returning": 1,
          "uid": "349"
        },
        "free_bikes": 13,
        "id": "ac5c956abf7f95a75627664be5d7c200",
        "latitude": 40.71850211,
        "longitude": -73.98329859,
        "name": "Rivington St & Ridge St",
        "timestamp": "2020-08-13T14:38:37.488000Z"
      },
      {
        "empty_slots": 2,
        "extra": {
          "address": null,
          "last_updated": 1597325975,
          "renting": 1,
          "returning": 1,
          "uid": "3495"
        },
        "free_bikes": 24,
        "id": "07f0bd022f67e8d3c6df62aac6489e4f",
        "latitude": 40.7945663,
        "longitude": -73.9362541,
        "name": "E 114 St & 1 Ave",
        "timestamp": "2020-08-13T14:38:37.492000Z"
      },
      {
        "empty_slots": 27,
        "extra": {
          "address": null,
          "last_updated": 1597326413,
          "renting": 1,
          "returning": 1,
          "uid": "3718"
        },
        "free_bikes": 19,
        "id": "74181cfa0669cabb339792d84b2dccb9",
        "latitude": 40.72746420692392,
        "longitude": -73.97950418293476,
        "name": "E 11 St & Avenue B",
        "timestamp": "2020-08-13T14:38:37.500000Z"
      },
      {
        "empty_slots": 0,
        "extra": {
          "address": null,
          "last_updated": 1597322636,
          "renting": 1,
          "returning": 1,
          "uid": "3333"
        },
        "free_bikes": 21,
        "id": "e71577342c522f803be610a89edb38ef",
        "latitude": 40.6747055,
        "longitude": -74.0075572,
        "name": "Columbia St & Lorraine St",
        "timestamp": "2020-08-13T14:38:37.501000Z"
      },
      {
        "empty_slots": 25,
        "extra": {
          "address": null,
          "last_updated": 1597327231,
          "renting": 1,
          "returning": 1,
          "uid": "478"
        },
        "free_bikes": 12,
        "id": "a71ac277c068151817eea703b2286b83",
        "latitude": 40.76030096,
        "longitude": -73.99884222,
        "name": "11 Ave & W 41 St",
        "timestamp": "2020-08-13T14:38:37.502000Z"
      },
      {
        "empty_slots": 30,
        "extra": {
          "address": null,
          "last_updated": 1597325926,
          "renting": 1,
          "returning": 1,
          "uid": "3331"
        },
        "free_bikes": 9,
        "id": "91af89740b1c50290e92bae27bb25b99",
        "latitude": 40.8013434,
        "longitude": -73.9711457439,
        "name": "Riverside Dr & W 104 St",
        "timestamp": "2020-08-13T14:38:37.504000Z"
      },
      {
        "empty_slots": 4,
        "extra": {
          "address": null,
          "last_updated": 1597302507,
          "renting": 1,
          "returning": 1,
          "uid": "3330"
        },
        "free_bikes": 15,
        "id": "ae24ee4f57686e255f3357e47f1cfb3d",
        "latitude": 40.6725058,
        "longitude": -74.00494695,
        "name": "Henry St & Bay St",
        "timestamp": "2020-08-13T14:38:37.509000Z"
      },
      {
        "empty_slots": 13,
        "extra": {
          "address": null,
          "last_updated": 1597323945,
          "renting": 1,
          "returning": 1,
          "uid": "3337"
        },
        "free_bikes": 10,
        "id": "2c17cfae12ac9bb921675bceb0c72184",
        "latitude": 40.67363551341504,
        "longitude": -74.01195555925369,
        "name": "Dwight St & Van Dyke St",
        "timestamp": "2020-08-13T14:38:37.512000Z"
      },
      {
        "empty_slots": 30,
        "extra": {
          "address": null,
          "last_updated": 1597329444,
          "renting": 1,
          "returning": 1,
          "uid": "3336"
        },
        "free_bikes": 10,
        "id": "a7df126dc423385450b5a626993a1f1b",
        "latitude": 40.787801,
        "longitude": -73.953559,
        "name": "E 97 St & Madison Ave",
        "timestamp": "2020-08-13T14:38:37.514000Z"
      },
      {
        "empty_slots": 14,
        "extra": {
          "address": null,
          "last_updated": 1597329039,
          "renting": 1,
          "returning": 1,
          "uid": "3335"
        },
        "free_bikes": 14,
        "id": "daa4b5e1cac4dfb931b7e85c44db3339",
        "latitude": 40.6772744,
        "longitude": -73.98282002,
        "name": "Union St & 4 Ave",
        "timestamp": "2020-08-13T14:38:37.524000Z"
      },
      {
        "empty_slots": 2,
        "extra": {
          "address": null,
          "last_updated": 1597325984,
          "renting": 1,
          "returning": 1,
          "uid": "3339"
        },
        "free_bikes": 20,
        "id": "1b5365e00848878fbaa6cf71c5e231a9",
        "latitude": 40.6765304,
        "longitude": -73.97846879,
        "name": "Berkeley Pl & 6 Ave",
        "timestamp": "2020-08-13T14:38:37.532000Z"
      },
      {
        "empty_slots": 20,
        "extra": {
          "address": null,
          "last_updated": 1597329254,
          "renting": 1,
          "returning": 1,
          "uid": "3338"
        },
        "free_bikes": 11,
        "id": "e34bb133a7e5baf1452ce024717d6d7a",
        "latitude": 40.7862586,
        "longitude": -73.94552579,
        "name": "2 Ave & E 99 St",
        "timestamp": "2020-08-13T14:38:37.534000Z"
      },
      {
        "empty_slots": 22,
        "extra": {
          "address": null,
          "last_updated": 1597324113,
          "renting": 1,
          "returning": 1,
          "uid": "3768"
        },
        "free_bikes": 1,
        "id": "40e1522fdfd3337ac0a5cf5258751815",
        "latitude": 40.71019,
        "longitude": -73.93734,
        "name": "Waterbury St & Stagg St",
        "timestamp": "2020-08-13T14:38:37.544000Z"
      },
      {
        "empty_slots": 13,
        "extra": {
          "address": null,
          "last_updated": 1597325016,
          "renting": 1,
          "returning": 1,
          "uid": "298"
        },
        "free_bikes": 20,
        "id": "07b25a978540d6aa50b1574f7641d443",
        "latitude": 40.68683208,
        "longitude": -73.9796772,
        "name": "3 Ave & Schermerhorn St",
        "timestamp": "2020-08-13T14:38:37.565000Z"
      },
      {
        "empty_slots": 47,
        "extra": {
          "address": null,
          "last_updated": 1597328513,
          "renting": 1,
          "returning": 1,
          "uid": "297"
        },
        "free_bikes": 29,
        "id": "101daa5da1c5dff349b35177bf5cece1",
        "latitude": 40.734232,
        "longitude": -73.986923,
        "name": "E 15 St & 3 Ave",
        "timestamp": "2020-08-13T14:38:37.569000Z"
      },
      {
        "empty_slots": 8,
        "extra": {
          "address": null,
          "last_updated": 1597327335,
          "renting": 1,
          "returning": 1,
          "uid": "295"
        },
        "free_bikes": 15,
        "id": "88c0b3f44427945e77e67491110d3405",
        "latitude": 40.71406667,
        "longitude": -73.99293911,
        "name": "Pike St & E Broadway",
        "timestamp": "2020-08-13T14:38:37.572000Z"
      },
      {
        "empty_slots": 38,
        "extra": {
          "address": null,
          "last_updated": 1597327705,
          "renting": 1,
          "returning": 1,
          "uid": "293"
        },
        "free_bikes": 16,
        "id": "50e28014a9b46fa320fd816c6af4a49e",
        "latitude": 40.73020660529954,
        "longitude": -73.99102628231049,
        "name": "Lafayette St & E 8 St",
        "timestamp": "2020-08-13T14:38:37.573000Z"
      },
      {
        "empty_slots": 12,
        "extra": {
          "address": null,
          "last_updated": 1597326660,
          "renting": 1,
          "returning": 1,
          "uid": "291"
        },
        "free_bikes": 2,
        "id": "66609f1af5e55cd6576062e9a237287e",
        "latitude": 40.713126,
        "longitude": -73.984844,
        "name": "Madison St & Montgomery St",
        "timestamp": "2020-08-13T14:38:37.580000Z"
      },
      {
        "empty_slots": 2,
        "extra": {
          "address": null,
          "last_updated": 1597326598,
          "renting": 1,
          "returning": 1,
          "uid": "3773"
        },
        "free_bikes": 17,
        "id": "d8bf2f87cc329894c610360558e9220d",
        "latitude": 40.70539,
        "longitude": -73.92976,
        "name": "Knickerbocker Ave & Thames St",
        "timestamp": "2020-08-13T14:38:37.590000Z"
      },
      {
        "empty_slots": 19,
        "extra": {
          "address": null,
          "last_updated": 1597321596,
          "renting": 1,
          "returning": 1,
          "uid": "3772"
        },
        "free_bikes": 0,
        "id": "cf98029721ab6d5a1ccf65cee9cebd1b",
        "latitude": 40.713811,
        "longitude": -73.93515,
        "name": "Devoe St & Morgan Ave",
        "timestamp": "2020-08-13T14:38:37.592000Z"
      },
      {
        "empty_slots": 0,
        "extra": {
          "address": null,
          "last_updated": 1597326653,
          "renting": 1,
          "returning": 1,
          "uid": "3771"
        },
        "free_bikes": 29,
        "id": "d2ccf83ad960756b6f73c0b6acddb11c",
        "latitude": 40.706237,
        "longitude": -73.933871,
        "name": "McKibbin St & Bogart St",
        "timestamp": "2020-08-13T14:38:37.598000Z"
      },
      {
        "empty_slots": 13,
        "extra": {
          "address": null,
          "last_updated": 1597325716,
          "renting": 1,
          "returning": 1,
          "uid": "3770"
        },
        "free_bikes": 8,
        "id": "010f92292461543f36314829cb02afac",
        "latitude": 40.702831,
        "longitude": -73.9333,
        "name": "Central Ave & Flushing Ave",
        "timestamp": "2020-08-13T14:38:37.601000Z"
      },
      {
        "empty_slots": 22,
        "extra": {
          "address": null,
          "last_updated": 1597328480,
          "renting": 1,
          "returning": 1,
          "uid": "3777"
        },
        "free_bikes": 1,
        "id": "e36347071ae8d966f1c13fae8780f373",
        "latitude": 40.699304,
        "longitude": -73.923044,
        "name": "Stockholm St & Wilson Ave",
        "timestamp": "2020-08-13T14:38:37.603000Z"
      },
      {
        "empty_slots": 16,
        "extra": {
          "address": null,
          "last_updated": 1597322444,
          "renting": 1,
          "returning": 1,
          "uid": "3776"
        },
        "free_bikes": 7,
        "id": "2923dae1f9c925711be47f55c0180aa3",
        "latitude": 40.700003,
        "longitude": -73.92834,
        "name": "Central Ave & Starr Street",
        "timestamp": "2020-08-13T14:38:37.605000Z"
      },
      {
        "empty_slots": 10,
        "extra": {
          "address": null,
          "last_updated": 1597327266,
          "renting": 1,
          "returning": 1,
          "uid": "3775"
        },
        "free_bikes": 17,
        "id": "dcfe41467821a88bec67179cf4dc0a70",
        "latitude": 40.702013,
        "longitude": -73.923769,
        "name": "Suydam St & Knickerbocker Ave",
        "timestamp": "2020-08-13T14:38:37.613000Z"
      },
      {
        "empty_slots": 0,
        "extra": {
          "address": null,
          "last_updated": 1597323878,
          "renting": 1,
          "returning": 1,
          "uid": "3774"
        },
        "free_bikes": 23,
        "id": "d0602c69b366b808ecc3936c206e04bb",
        "latitude": 40.704425,
        "longitude": -73.92836,
        "name": "Knickerbocker Ave & George St",
        "timestamp": "2020-08-13T14:38:37.620000Z"
      },
      {
        "empty_slots": 20,
        "extra": {
          "address": null,
          "last_updated": 1597328993,
          "renting": 1,
          "returning": 1,
          "uid": "195"
        },
        "free_bikes": 24,
        "id": "07492b50fd872ffe88c78a272d6534c1",
        "latitude": 40.70905623,
        "longitude": -74.01043382,
        "name": "Liberty St & Broadway",
        "timestamp": "2020-08-13T14:38:37.622000Z"
      },
      {
        "empty_slots": 16,
        "extra": {
          "address": null,
          "last_updated": 1597325367,
          "renting": 1,
          "returning": 1,
          "uid": "3779"
        },
        "free_bikes": 8,
        "id": "34dd6c48746474a848ead727855b1372",
        "latitude": 40.704876,
        "longitude": -73.919911,
        "name": "Hart St & Wyckoff Ave",
        "timestamp": "2020-08-13T14:38:37.624000Z"
      },
      {
        "empty_slots": 13,
        "extra": {
          "address": null,
          "last_updated": 1597324178,
          "renting": 1,
          "returning": 1,
          "uid": "3778"
        },
        "free_bikes": 14,
        "id": "5b7746fc518ac94da102c0672b9e3184",
        "latitude": 40.7027,
        "longitude": -73.92095,
        "name": "Irving Ave & DeKalb Ave",
        "timestamp": "2020-08-13T14:38:37.627000Z"
      },
      {
        "empty_slots": 18,
        "extra": {
          "address": null,
          "last_updated": 1597325776,
          "renting": 1,
          "returning": 1,
          "uid": "270"
        },
        "free_bikes": 5,
        "id": "d840fae588435ad6c219db0d4c252447",
        "latitude": 40.69308257,
        "longitude": -73.97178913,
        "name": "Adelphi St & Myrtle Ave",
        "timestamp": "2020-08-13T14:38:37.636000Z"
      },
      {
        "empty_slots": 0,
        "extra": {
          "address": null,
          "last_updated": 1597329135,
          "renting": 1,
          "returning": 1,
          "uid": "3141"
        },
        "free_bikes": 39,
        "id": "6e43cd37a571f8a9bff43fcea0b6d295",
        "latitude": 40.76500525,
        "longitude": -73.95818491,
        "name": "1 Ave & E 68 St",
        "timestamp": "2020-08-13T14:38:37.638000Z"
      },
      {
        "empty_slots": 26,
        "extra": {
          "address": null,
          "last_updated": 1597327377,
          "renting": 1,
          "returning": 1,
          "uid": "3142"
        },
        "free_bikes": 13,
        "id": "5ba135e7eb13cb933f2fcaca980276b5",
        "latitude": 40.7612274,
        "longitude": -73.96094022,
        "name": "1 Ave & E 62 St",
        "timestamp": "2020-08-13T14:38:37.644000Z"
      },
      {
        "empty_slots": 37,
        "extra": {
          "address": null,
          "last_updated": 1597329331,
          "renting": 1,
          "returning": 1,
          "uid": "3143"
        },
        "free_bikes": 10,
        "id": "91e510ea32dfbee99aa27395695b457d",
        "latitude": 40.77632142182271,
        "longitude": -73.96427392959595,
        "name": "5 Ave & E 78 St",
        "timestamp": "2020-08-13T14:38:37.649000Z"
      },
      {
        "empty_slots": 11,
        "extra": {
          "address": null,
          "last_updated": 1597328372,
          "renting": 1,
          "returning": 1,
          "uid": "274"
        },
        "free_bikes": 20,
        "id": "88b3ec9559850a353b5a956d6d573b5c",
        "latitude": 40.68691865,
        "longitude": -73.976682,
        "name": "Lafayette Ave & Fort Greene Pl",
        "timestamp": "2020-08-13T14:38:37.650000Z"
      },
      {
        "empty_slots": 15,
        "extra": {
          "address": null,
          "last_updated": 1597328094,
          "renting": 1,
          "returning": 1,
          "uid": "275"
        },
        "free_bikes": 4,
        "id": "0c31a89981605645db5d73705b766bac",
        "latitude": 40.68650065,
        "longitude": -73.96563307,
        "name": "Washington Ave & Greene Ave",
        "timestamp": "2020-08-13T14:38:37.651000Z"
      },
      {
        "empty_slots": 4,
        "extra": {
          "address": null,
          "last_updated": 1597327319,
          "renting": 1,
          "returning": 1,
          "uid": "276"
        },
        "free_bikes": 20,
        "id": "21b20e70158ebf67f82e847e5fc4ab8f",
        "latitude": 40.71748752,
        "longitude": -74.0104554,
        "name": "Duane St & Greenwich St",
        "timestamp": "2020-08-13T14:38:37.660000Z"
      },
      {
        "empty_slots": 11,
        "extra": {
          "address": null,
          "last_updated": 1597327262,
          "renting": 1,
          "returning": 1,
          "uid": "278"
        },
        "free_bikes": 6,
        "id": "f3a68c3b4b6614f7c5c706b96c867386",
        "latitude": 40.69766564,
        "longitude": -73.98476437,
        "name": "Concord St & Bridge St",
        "timestamp": "2020-08-13T14:38:37.668000Z"
      },
      {
        "empty_slots": 37,
        "extra": {
          "address": null,
          "last_updated": 1597325856,
          "renting": 1,
          "returning": 1,
          "uid": "3671"
        },
        "free_bikes": 0,
        "id": "2766039d8986704c53396e20d6318bd1",
        "latitude": 40.774779448957275,
        "longitude": -73.95427465438843,
        "name": "E 81 St & 2 Ave",
        "timestamp": "2020-08-13T14:38:37.671000Z"
      },
      {
        "empty_slots": 17,
        "extra": {
          "address": null,
          "last_updated": 1597324557,
          "renting": 1,
          "returning": 1,
          "uid": "3676"
        },
        "free_bikes": 7,
        "id": "a5a5842efcea2b33b02e27b494f60467",
        "latitude": 40.6758329439129,
        "longitude": -74.01472628116608,
        "name": "Van Brunt St & Van Dyke St",
        "timestamp": "2020-08-13T14:38:37.680000Z"
      },
      {
        "empty_slots": 16,
        "extra": {
          "address": null,
          "last_updated": 1597324489,
          "renting": 1,
          "returning": 1,
          "uid": "3677"
        },
        "free_bikes": 2,
        "id": "fe77d499d0064660a936aa00f1519bb2",
        "latitude": 40.72755146730012,
        "longitude": -74.07106071710587,
        "name": "Glenwood Ave",
        "timestamp": "2020-08-13T14:38:37.681000Z"
      },
      {
        "empty_slots": 12,
        "extra": {
          "address": null,
          "last_updated": 1597329071,
          "renting": 1,
          "returning": 1,
          "uid": "3674"
        },
        "free_bikes": 15,
        "id": "0eb723b81edb20e3c37f880c08349b69",
        "latitude": 40.701403172577244,
        "longitude": -73.98672670125961,
        "name": "Jay St & York St",
        "timestamp": "2020-08-13T14:38:37.682000Z"
      },
      {
        "empty_slots": 22,
        "extra": {
          "address": null,
          "last_updated": 1597329414,
          "renting": 1,
          "returning": 1,
          "uid": "3386"
        },
        "free_bikes": 5,
        "id": "52c41d2c9b0615f4ad69167d3e66bf8b",
        "latitude": 40.6809591,
        "longitude": -73.99905709,
        "name": "1 Pl & Clinton St",
        "timestamp": "2020-08-13T14:38:37.688000Z"
      },
      {
        "empty_slots": 1,
        "extra": {
          "address": null,
          "last_updated": 1597315123,
          "renting": 0,
          "returning": 0,
          "uid": "3387"
        },
        "free_bikes": 23,
        "id": "b403bf73c64da4222ff782e461c685ea",
        "latitude": 40.7934337,
        "longitude": -73.94945003,
        "name": "E 106 St & Madison Ave",
        "timestamp": "2020-08-13T14:38:37.689000Z"
      },
      {
        "empty_slots": 22,
        "extra": {
          "address": null,
          "last_updated": 1597326347,
          "renting": 1,
          "returning": 1,
          "uid": "3384"
        },
        "free_bikes": 3,
        "id": "7f71de48a1ae570569fa1246d05f5a7a",
        "latitude": 40.6787242,
        "longitude": -73.99599099,
        "name": "Smith St & 3 St",
        "timestamp": "2020-08-13T14:38:37.696000Z"
      },
      {
        "empty_slots": 26,
        "extra": {
          "address": null,
          "last_updated": 1597326957,
          "renting": 1,
          "returning": 1,
          "uid": "3382"
        },
        "free_bikes": 5,
        "id": "e99c97fd8792bc37d9669ace03f8887f",
        "latitude": 40.680611,
        "longitude": -73.99475825,
        "name": "Carroll St & Smith St",
        "timestamp": "2020-08-13T14:38:37.697000Z"
      },
      {
        "empty_slots": 20,
        "extra": {
          "address": null,
          "last_updated": 1597328407,
          "renting": 1,
          "returning": 1,
          "uid": "3383"
        },
        "free_bikes": 5,
        "id": "d8cc1bee00e38a208fe6a86d56e1899c",
        "latitude": 40.804213,
        "longitude": -73.96699104,
        "name": "Cathedral Pkwy & Broadway",
        "timestamp": "2020-08-13T14:38:37.699000Z"
      },
      {
        "empty_slots": 19,
        "extra": {
          "address": null,
          "last_updated": 1597325739,
          "renting": 1,
          "returning": 1,
          "uid": "3381"
        },
        "free_bikes": 2,
        "id": "41fe4253b2718d27817c0327887bf19a",
        "latitude": 40.6777287,
        "longitude": -73.99364123,
        "name": "3 St & Hoyt St",
        "timestamp": "2020-08-13T14:38:37.704000Z"
      },
      {
        "empty_slots": 23,
        "extra": {
          "address": null,
          "last_updated": 1597328298,
          "renting": 1,
          "returning": 1,
          "uid": "3749"
        },
        "free_bikes": 0,
        "id": "78466b7e0be084d30c6015c3e9b5374c",
        "latitude": 40.747573958954796,
        "longitude": -73.9788007736206,
        "name": "Lexington Ave & E 36 St",
        "timestamp": "2020-08-13T14:38:38.645000Z"
      },
      {
        "empty_slots": 1,
        "extra": {
          "address": null,
          "last_updated": 1597322927,
          "renting": 1,
          "returning": 1,
          "uid": "3388"
        },
        "free_bikes": 24,
        "id": "9d617a294dc81385a7a84652e5dc34c4",
        "latitude": 40.6828003,
        "longitude": -73.99990419,
        "name": "President St & Henry St",
        "timestamp": "2020-08-13T14:38:37.710000Z"
      },
      {
        "empty_slots": 8,
        "extra": {
          "address": null,
          "last_updated": 1597327525,
          "renting": 1,
          "returning": 1,
          "uid": "3389"
        },
        "free_bikes": 20,
        "id": "fc271da0e69a16c52ab27f8c168a6b37",
        "latitude": 40.6830456,
        "longitude": -74.00348559,
        "name": "Carroll St & Columbia St",
        "timestamp": "2020-08-13T14:38:37.711000Z"
      },
      {
        "empty_slots": 20,
        "extra": {
          "address": null,
          "last_updated": 1597327856,
          "renting": 1,
          "returning": 1,
          "uid": "525"
        },
        "free_bikes": 36,
        "id": "3b6d288572e702d96fe3a28c150adc1b",
        "latitude": 40.75594159,
        "longitude": -74.0021163,
        "name": "W 34 St & 11 Ave",
        "timestamp": "2020-08-13T14:38:37.712000Z"
      },
      {
        "empty_slots": 17,
        "extra": {
          "address": null,
          "last_updated": 1597328684,
          "renting": 1,
          "returning": 1,
          "uid": "526"
        },
        "free_bikes": 23,
        "id": "6563287f413683fd05df03545ae7dc07",
        "latitude": 40.74765947,
        "longitude": -73.98490707,
        "name": "E 33 St & 5 Ave",
        "timestamp": "2020-08-13T14:38:37.724000Z"
      },
      {
        "empty_slots": 16,
        "extra": {
          "address": null,
          "last_updated": 1597326561,
          "renting": 1,
          "returning": 1,
          "uid": "522"
        },
        "free_bikes": 35,
        "id": "794d5d269c3cec97db767f747a12594f",
        "latitude": 40.75714758,
        "longitude": -73.97207836,
        "name": "E 51 St & Lexington Ave",
        "timestamp": "2020-08-13T14:38:37.728000Z"
      },
      {
        "empty_slots": 8,
        "extra": {
          "address": null,
          "last_updated": 1597328670,
          "renting": 1,
          "returning": 1,
          "uid": "528"
        },
        "free_bikes": 30,
        "id": "80e56214df3108c1777ec61c3a79a63b",
        "latitude": 40.74290902,
        "longitude": -73.97706058,
        "name": "2 Ave & E 31 St",
        "timestamp": "2020-08-13T14:38:37.731000Z"
      },
      {
        "empty_slots": 41,
        "extra": {
          "address": null,
          "last_updated": 1597325941,
          "renting": 1,
          "returning": 1,
          "uid": "529"
        },
        "free_bikes": 0,
        "id": "a93a18471a76622ed038d58f74c7984f",
        "latitude": 40.7575699,
        "longitude": -73.99098507,
        "name": "W 42 St & 8 Ave",
        "timestamp": "2020-08-13T14:38:37.736000Z"
      },
      {
        "empty_slots": 15,
        "extra": {
          "address": null,
          "last_updated": 1597326671,
          "renting": 1,
          "returning": 1,
          "uid": "3580"
        },
        "free_bikes": 15,
        "id": "810be6dc6e1af5fd4e2c3853f9c5d7ed",
        "latitude": 40.6737236,
        "longitude": -73.9631611,
        "name": "St Johns Pl & Washington Ave",
        "timestamp": "2020-08-13T14:38:37.741000Z"
      },
      {
        "empty_slots": 4,
        "extra": {
          "address": null,
          "last_updated": 1597329252,
          "renting": 1,
          "returning": 1,
          "uid": "3581"
        },
        "free_bikes": 23,
        "id": "a7638c15dde84c27b842458a7aa12d6a",
        "latitude": 40.6740123,
        "longitude": -73.9671457,
        "name": "Underhill Ave & Lincoln Pl",
        "timestamp": "2020-08-13T14:38:37.742000Z"
      },
      {
        "empty_slots": 28,
        "extra": {
          "address": null,
          "last_updated": 1597325354,
          "renting": 1,
          "returning": 1,
          "uid": "3582"
        },
        "free_bikes": 0,
        "id": "b298d4e026b8cace01b5c031c9c0a8bd",
        "latitude": 40.6721683,
        "longitude": -73.9609,
        "name": "Lincoln Pl & Classon Ave",
        "timestamp": "2020-08-13T14:38:37.747000Z"
      },
      {
        "empty_slots": 15,
        "extra": {
          "address": null,
          "last_updated": 1597325837,
          "renting": 1,
          "returning": 1,
          "uid": "3585"
        },
        "free_bikes": 9,
        "id": "d577ae3fa5542a100948e4c54cba8f18",
        "latitude": 40.6691783,
        "longitude": -73.9554162,
        "name": "Union St & Bedford Ave",
        "timestamp": "2020-08-13T14:38:37.762000Z"
      },
      {
        "empty_slots": 3,
        "extra": {
          "address": null,
          "last_updated": 1597326240,
          "renting": 1,
          "returning": 1,
          "uid": "3586"
        },
        "free_bikes": 16,
        "id": "bf15eefc998dc8bf6d95dc4d4aeb330e",
        "latitude": 40.7638753,
        "longitude": -73.9364848,
        "name": "34 Ave & 13 St",
        "timestamp": "2020-08-13T14:38:37.763000Z"
      },
      {
        "empty_slots": 2,
        "extra": {
          "address": null,
          "last_updated": 1597328319,
          "renting": 1,
          "returning": 1,
          "uid": "443"
        },
        "free_bikes": 19,
        "id": "4449cb908b55ad07a725cc4c1412baac",
        "latitude": 40.70853074,
        "longitude": -73.96408963,
        "name": "Bedford Ave & S 9 St",
        "timestamp": "2020-08-13T14:38:37.765000Z"
      },
      {
        "empty_slots": 1,
        "extra": {
          "address": null,
          "last_updated": 1597327017,
          "renting": 1,
          "returning": 1,
          "uid": "440"
        },
        "free_bikes": 30,
        "id": "141163c2b3b7cee1e063f53191c19095",
        "latitude": 40.75255434,
        "longitude": -73.97282625,
        "name": "E 45 St & 3 Ave",
        "timestamp": "2020-08-13T14:38:37.767000Z"
      },
      {
        "empty_slots": 23,
        "extra": {
          "address": null,
          "last_updated": 1597327888,
          "renting": 1,
          "returning": 1,
          "uid": "447"
        },
        "free_bikes": 4,
        "id": "322fd986046af45fc3d7e058aab7bde3",
        "latitude": 40.76370739,
        "longitude": -73.9851615,
        "name": "8 Ave & W 52 St",
        "timestamp": "2020-08-13T14:38:37.777000Z"
      },
      {
        "empty_slots": 67,
        "extra": {
          "address": null,
          "last_updated": 1597329193,
          "renting": 1,
          "returning": 1,
          "uid": "446"
        },
        "free_bikes": 11,
        "id": "acd2cd01340fd3fe767a77fb47f769ce",
        "latitude": 40.74487634,
        "longitude": -73.99529885,
        "name": "W 24 St & 7 Ave",
        "timestamp": "2020-08-13T14:38:37.779000Z"
      },
      {
        "empty_slots": 37,
        "extra": {
          "address": null,
          "last_updated": 1597329098,
          "renting": 1,
          "returning": 1,
          "uid": "445"
        },
        "free_bikes": 43,
        "id": "e99f3e89fa8216f552ec1b01f29e4077",
        "latitude": 40.72740794,
        "longitude": -73.98142006,
        "name": "E 10 St & Avenue A",
        "timestamp": "2020-08-13T14:38:37.780000Z"
      },
      {
        "empty_slots": 11,
        "extra": {
          "address": null,
          "last_updated": 1597327737,
          "renting": 1,
          "returning": 1,
          "uid": "3310"
        },
        "free_bikes": 13,
        "id": "9fbb743331fb0ce6a96388e4849725f6",
        "latitude": 40.663779,
        "longitude": -73.98396846,
        "name": "14 St & 7 Ave",
        "timestamp": "2020-08-13T14:38:37.783000Z"
      },
      {
        "empty_slots": 42,
        "extra": {
          "address": null,
          "last_updated": 1597326416,
          "renting": 1,
          "returning": 1,
          "uid": "3152"
        },
        "free_bikes": 0,
        "id": "177ac66dec88695ba730f8b5d04850db",
        "latitude": 40.76873687,
        "longitude": -73.96119945,
        "name": "3 Ave & E 71 St",
        "timestamp": "2020-08-13T14:38:37.789000Z"
      },
      {
        "empty_slots": 41,
        "extra": {
          "address": null,
          "last_updated": 1597329154,
          "renting": 1,
          "returning": 1,
          "uid": "3151"
        },
        "free_bikes": 2,
        "id": "1ddfe7ef2cc8b16bda7e139c2ae76d2b",
        "latitude": 40.7728384,
        "longitude": -73.94989233,
        "name": "E 81 St & York Ave",
        "timestamp": "2020-08-13T14:38:37.790000Z"
      },
      {
        "empty_slots": 7,
        "extra": {
          "address": null,
          "last_updated": 1597328571,
          "renting": 1,
          "returning": 1,
          "uid": "3092"
        },
        "free_bikes": 19,
        "id": "810dc23919af68173dfd16361a217b07",
        "latitude": 40.7190095,
        "longitude": -73.95852515,
        "name": "Berry St & N 8 St",
        "timestamp": "2020-08-13T14:38:37.792000Z"
      },
      {
        "empty_slots": 4,
        "extra": {
          "address": null,
          "last_updated": 1597328313,
          "renting": 1,
          "returning": 1,
          "uid": "3093"
        },
        "free_bikes": 24,
        "id": "f42e23b1d89191f08ff849055dd9d411",
        "latitude": 40.71745169,
        "longitude": -73.95850939,
        "name": "N 6 St & Bedford Ave",
        "timestamp": "2020-08-13T14:38:37.796000Z"
      },
      {
        "empty_slots": 20,
        "extra": {
          "address": null,
          "last_updated": 1597327930,
          "renting": 1,
          "returning": 1,
          "uid": "3096"
        },
        "free_bikes": 19,
        "id": "c7479c9a2a0cc60e199bffe89ad2cbcc",
        "latitude": 40.71924,
        "longitude": -73.95242,
        "name": "Union Ave & N 12 St",
        "timestamp": "2020-08-13T14:38:37.798000Z"
      },
      {
        "empty_slots": 20,
        "extra": {
          "address": null,
          "last_updated": 1597328661,
          "renting": 1,
          "returning": 1,
          "uid": "438"
        },
        "free_bikes": 26,
        "id": "6cdf42019b067c47c2f9a649451ff266",
        "latitude": 40.72779126,
        "longitude": -73.98564945,
        "name": "St Marks Pl & 1 Ave",
        "timestamp": "2020-08-13T14:38:40.371000Z"
      },
      {
        "empty_slots": 21,
        "extra": {
          "address": null,
          "last_updated": 1597325639,
          "renting": 1,
          "returning": 1,
          "uid": "3095"
        },
        "free_bikes": 5,
        "id": "5f7338a7df326201bdb40c3a305e3fb6",
        "latitude": 40.71929301,
        "longitude": -73.94500379,
        "name": "Graham Ave & Herbert St",
        "timestamp": "2020-08-13T14:38:37.806000Z"
      },
      {
        "empty_slots": 16,
        "extra": {
          "address": null,
          "last_updated": 1597329329,
          "renting": 1,
          "returning": 1,
          "uid": "436"
        },
        "free_bikes": 11,
        "id": "8c3b74f9dc3ad4b96966efcf949bdfd7",
        "latitude": 40.68216564,
        "longitude": -73.95399026,
        "name": "Hancock St & Bedford Ave",
        "timestamp": "2020-08-13T14:38:37.808000Z"
      },
      {
        "empty_slots": 13,
        "extra": {
          "address": null,
          "last_updated": 1597326061,
          "renting": 1,
          "returning": 1,
          "uid": "437"
        },
        "free_bikes": 11,
        "id": "4a1c8658155444641bdb4e418fa30794",
        "latitude": 40.6809833854,
        "longitude": -73.9500479759,
        "name": "Macon St & Nostrand Ave",
        "timestamp": "2020-08-13T14:38:37.810000Z"
      },
      {
        "empty_slots": 22,
        "extra": {
          "address": null,
          "last_updated": 1597326232,
          "renting": 1,
          "returning": 1,
          "uid": "434"
        },
        "free_bikes": 37,
        "id": "ec9b7a5491e0ac3afb18a7eeef474991",
        "latitude": 40.74317449,
        "longitude": -74.00366443,
        "name": "9 Ave & W 18 St",
        "timestamp": "2020-08-13T14:38:37.814000Z"
      },
      {
        "empty_slots": 15,
        "extra": {
          "address": null,
          "last_updated": 1597329210,
          "renting": 1,
          "returning": 1,
          "uid": "435"
        },
        "free_bikes": 35,
        "id": "b514523a295a23616e434d2b7fcd308d",
        "latitude": 40.74173969,
        "longitude": -73.99415556,
        "name": "W 21 St & 6 Ave",
        "timestamp": "2020-08-13T14:38:37.815000Z"
      },
      {
        "empty_slots": 20,
        "extra": {
          "address": null,
          "last_updated": 1597327145,
          "renting": 1,
          "returning": 1,
          "uid": "432"
        },
        "free_bikes": 11,
        "id": "5285e86db25bded3e0bbe0c4b3fd21b0",
        "latitude": 40.72621788,
        "longitude": -73.98379855,
        "name": "E 7 St & Avenue A",
        "timestamp": "2020-08-13T14:38:37.817000Z"
      },
      {
        "empty_slots": 3,
        "extra": {
          "address": null,
          "last_updated": 1597326816,
          "renting": 1,
          "returning": 1,
          "uid": "3759"
        },
        "free_bikes": 16,
        "id": "7904c5b866ef0c09101e84fdda91e11c",
        "latitude": 40.70538,
        "longitude": -73.92535,
        "name": "Irving Ave & Jefferson St",
        "timestamp": "2020-08-13T14:38:37.818000Z"
      },
      {
        "empty_slots": 4,
        "extra": {
          "address": null,
          "last_updated": 1597329495,
          "renting": 1,
          "returning": 1,
          "uid": "335"
        },
        "free_bikes": 23,
        "id": "68d2b9e52ce081a319bdad2514ea2463",
        "latitude": 40.72903917,
        "longitude": -73.99404649,
        "name": "Washington Pl & Broadway",
        "timestamp": "2020-08-13T14:38:37.825000Z"
      },
      {
        "empty_slots": 8,
        "extra": {
          "address": null,
          "last_updated": 1597328333,
          "renting": 1,
          "returning": 1,
          "uid": "334"
        },
        "free_bikes": 22,
        "id": "5f5b167751bfb54c354d9ca2a527f09e",
        "latitude": 40.74238787,
        "longitude": -73.99726235,
        "name": "W 20 St & 7 Ave",
        "timestamp": "2020-08-13T14:38:37.826000Z"
      },
      {
        "empty_slots": 5,
        "extra": {
          "address": null,
          "last_updated": 1597325695,
          "renting": 1,
          "returning": 1,
          "uid": "331"
        },
        "free_bikes": 21,
        "id": "506ef3941933df4d38b00a3ae3fae8f2",
        "latitude": 40.71173107,
        "longitude": -73.99193043,
        "name": "Pike St & Monroe St",
        "timestamp": "2020-08-13T14:38:37.828000Z"
      },
      {
        "empty_slots": 16,
        "extra": {
          "address": null,
          "last_updated": 1597329425,
          "renting": 1,
          "returning": 1,
          "uid": "330"
        },
        "free_bikes": 21,
        "id": "b6d8f527e18cf6480eee00936e1b6e82",
        "latitude": 40.71450451,
        "longitude": -74.00562789,
        "name": "Reade St & Broadway",
        "timestamp": "2020-08-13T14:38:37.836000Z"
      },
      {
        "empty_slots": 30,
        "extra": {
          "address": null,
          "last_updated": 1597326100,
          "renting": 1,
          "returning": 1,
          "uid": "332"
        },
        "free_bikes": 6,
        "id": "a350375466cc6ca0ebb140916c3a2257",
        "latitude": 40.71219906,
        "longitude": -73.97948148,
        "name": "Cherry St",
        "timestamp": "2020-08-13T14:38:37.847000Z"
      },
      {
        "empty_slots": 4,
        "extra": {
          "address": null,
          "last_updated": 1597328609,
          "renting": 1,
          "returning": 1,
          "uid": "3298"
        },
        "free_bikes": 19,
        "id": "c5ae12324e657ff1f5a2a702a573f56a",
        "latitude": 40.686371,
        "longitude": -73.99383324,
        "name": "Warren St & Court St",
        "timestamp": "2020-08-13T14:38:37.849000Z"
      },
      {
        "empty_slots": 9,
        "extra": {
          "address": null,
          "last_updated": 1597326038,
          "renting": 1,
          "returning": 1,
          "uid": "3299"
        },
        "free_bikes": 14,
        "id": "b8235d3025c1626351d5291f4f5e14b3",
        "latitude": 40.78813,
        "longitude": -73.95206,
        "name": "E 98 St & Park Ave",
        "timestamp": "2020-08-13T14:38:37.853000Z"
      },
      {
        "empty_slots": 35,
        "extra": {
          "address": null,
          "last_updated": 1597324834,
          "renting": 1,
          "returning": 1,
          "uid": "3294"
        },
        "free_bikes": 3,
        "id": "0adb5fbcdad16616f95cc13611a3ba2f",
        "latitude": 40.7835016,
        "longitude": -73.955327,
        "name": "E 91 St & Park Ave",
        "timestamp": "2020-08-13T14:38:37.854000Z"
      },
      {
        "empty_slots": 49,
        "extra": {
          "address": null,
          "last_updated": 1597329500,
          "renting": 1,
          "returning": 1,
          "uid": "3295"
        },
        "free_bikes": 9,
        "id": "6c23ce6ba343d2bcd9bd052223ce155c",
        "latitude": 40.79127,
        "longitude": -73.964839,
        "name": "Central Park W & W 96 St",
        "timestamp": "2020-08-13T14:38:37.856000Z"
      },
      {
        "empty_slots": 41,
        "extra": {
          "address": null,
          "last_updated": 1597324900,
          "renting": 1,
          "returning": 1,
          "uid": "3296"
        },
        "free_bikes": 0,
        "id": "ebb1cf8510ded98f7e9ee8cf76a9ea28",
        "latitude": 40.782454175279874,
        "longitude": -73.9489196240902,
        "name": "E 93 St & 2 Ave",
        "timestamp": "2020-08-13T14:38:37.860000Z"
      },
      {
        "empty_slots": 11,
        "extra": {
          "address": null,
          "last_updated": 1597327032,
          "renting": 1,
          "returning": 1,
          "uid": "3297"
        },
        "free_bikes": 10,
        "id": "dfc5d8f6cec813584be190e7094f1264",
        "latitude": 40.6686627,
        "longitude": -73.97988067,
        "name": "6 St & 7 Ave",
        "timestamp": "2020-08-13T14:38:37.863000Z"
      },
      {
        "empty_slots": 21,
        "extra": {
          "address": null,
          "last_updated": 1597329502,
          "renting": 1,
          "returning": 1,
          "uid": "3292"
        },
        "free_bikes": 22,
        "id": "41be925876fad3fdf5107322fcae7dd8",
        "latitude": 40.7857851,
        "longitude": -73.957481,
        "name": "5 Ave & E 93 St",
        "timestamp": "2020-08-13T14:38:37.873000Z"
      },
      {
        "empty_slots": 20,
        "extra": {
          "address": null,
          "last_updated": 1597327956,
          "renting": 1,
          "returning": 1,
          "uid": "3293"
        },
        "free_bikes": 4,
        "id": "0bda8150467a951310434df139d9e32e",
        "latitude": 40.7921,
        "longitude": -73.9739,
        "name": "W 92 St & Broadway",
        "timestamp": "2020-08-13T14:38:37.874000Z"
      },
      {
        "empty_slots": 14,
        "extra": {
          "address": null,
          "last_updated": 1597328921,
          "renting": 1,
          "returning": 1,
          "uid": "3452"
        },
        "free_bikes": 29,
        "id": "21a780d76029121d494a44fc546334e0",
        "latitude": 40.71915571696044,
        "longitude": -73.94885390996933,
        "name": "Bayard St & Leonard St",
        "timestamp": "2020-08-13T14:38:37.880000Z"
      },
      {
        "empty_slots": 8,
        "extra": {
          "address": null,
          "last_updated": 1597325789,
          "renting": 1,
          "returning": 1,
          "uid": "3453"
        },
        "free_bikes": 10,
        "id": "1909fdefee61c79081ff155421ce2448",
        "latitude": 40.71335226222875,
        "longitude": -73.9491033554077,
        "name": "Devoe St & Lorimer St",
        "timestamp": "2020-08-13T14:38:37.884000Z"
      },
      {
        "empty_slots": 3,
        "extra": {
          "address": null,
          "last_updated": 1597328263,
          "renting": 1,
          "returning": 1,
          "uid": "3518"
        },
        "free_bikes": 31,
        "id": "479a4d7c88a5cbea3a6a7d68264808e0",
        "latitude": 40.808442,
        "longitude": -73.9452087,
        "name": "Lenox Ave & W 126 St",
        "timestamp": "2020-08-13T14:38:37.886000Z"
      },
      {
        "empty_slots": 18,
        "extra": {
          "address": null,
          "last_updated": 1597326103,
          "renting": 1,
          "returning": 1,
          "uid": "3456"
        },
        "free_bikes": 4,
        "id": "ca5e1b633e2b93ce75ec83b3cfe316e6",
        "latitude": 40.71638031973561,
        "longitude": -73.94821286201477,
        "name": "Jackson St & Leonard St",
        "timestamp": "2020-08-13T14:38:37.887000Z"
      },
      {
        "empty_slots": 10,
        "extra": {
          "address": null,
          "last_updated": 1597325216,
          "renting": 1,
          "returning": 1,
          "uid": "3454"
        },
        "free_bikes": 13,
        "id": "e8577befa5165b22b8efd20965598772",
        "latitude": 40.7103685423523,
        "longitude": -73.94705951213837,
        "name": "Leonard St & Maujer St",
        "timestamp": "2020-08-13T14:38:37.892000Z"
      },
      {
        "empty_slots": 9,
        "extra": {
          "address": null,
          "last_updated": 1597327983,
          "renting": 1,
          "returning": 1,
          "uid": "3513"
        },
        "free_bikes": 10,
        "id": "0e6e4ab270be66d466a9c92a25ee2c5b",
        "latitude": 40.774645,
        "longitude": -73.923706,
        "name": "21 St & Hoyt Ave S",
        "timestamp": "2020-08-13T14:38:37.898000Z"
      },
      {
        "empty_slots": 1,
        "extra": {
          "address": null,
          "last_updated": 1597324037,
          "renting": 1,
          "returning": 1,
          "uid": "3517"
        },
        "free_bikes": 34,
        "id": "8f1dd5054688ae4a26aec411780ae2d5",
        "latitude": 40.7711528,
        "longitude": -73.9170074,
        "name": "31 St & Hoyt Ave N",
        "timestamp": "2020-08-13T14:38:37.910000Z"
      },
      {
        "empty_slots": 0,
        "extra": {
          "address": null,
          "last_updated": 1597327830,
          "renting": 0,
          "returning": 0,
          "uid": "3516"
        },
        "free_bikes": 30,
        "id": "e05a8fe556c00302a9fc28ea0a9ad2f0",
        "latitude": 40.7699176,
        "longitude": -73.9184057,
        "name": "31 St & Astoria Blvd",
        "timestamp": "2020-08-13T14:38:37.911000Z"
      },
      {
        "empty_slots": 3,
        "extra": {
          "address": null,
          "last_updated": 1597327900,
          "renting": 1,
          "returning": 1,
          "uid": "3515"
        },
        "free_bikes": 15,
        "id": "e4fc92640874c6d2c7f32931de569bcd",
        "latitude": 40.774591,
        "longitude": -73.918544,
        "name": "24 Ave & 26 St",
        "timestamp": "2020-08-13T14:38:37.912000Z"
      },
      {
        "empty_slots": 9,
        "extra": {
          "address": null,
          "last_updated": 1597328172,
          "renting": 1,
          "returning": 1,
          "uid": "3514"
        },
        "free_bikes": 14,
        "id": "c05a894b939f7ebc1f999520707aed0a",
        "latitude": 40.7767,
        "longitude": -73.927631,
        "name": "Astoria Park S & Shore Blvd",
        "timestamp": "2020-08-13T14:38:37.919000Z"
      },
      {
        "empty_slots": 0,
        "extra": {
          "address": null,
          "last_updated": 1597328970,
          "renting": 1,
          "returning": 1,
          "uid": "3508"
        },
        "free_bikes": 31,
        "id": "560ecd2ba03d9e261d4b9d4c8394c929",
        "latitude": 40.809725,
        "longitude": -73.953149,
        "name": "St Nicholas Ave & Manhattan Ave",
        "timestamp": "2020-08-13T14:38:37.947000Z"
      },
      {
        "empty_slots": 9,
        "extra": {
          "address": null,
          "last_updated": 1597328040,
          "renting": 1,
          "returning": 1,
          "uid": "3195"
        },
        "free_bikes": 25,
        "id": "13301889c1423295de6c93447a1335c0",
        "latitude": 40.73089709786179,
        "longitude": -74.06391263008118,
        "name": "Sip Ave",
        "timestamp": "2020-08-13T14:38:38.001000Z"
      },
      {
        "empty_slots": 25,
        "extra": {
          "address": null,
          "last_updated": 1597324786,
          "renting": 1,
          "returning": 1,
          "uid": "3207"
        },
        "free_bikes": 1,
        "id": "e886fd011f16b1c5bb33f2acb4e584e9",
        "latitude": 40.7376037,
        "longitude": -74.0524783,
        "name": "Oakland Ave",
        "timestamp": "2020-08-13T14:38:38.008000Z"
      },
      {
        "empty_slots": 22,
        "extra": {
          "address": null,
          "last_updated": 1597322994,
          "renting": 1,
          "returning": 1,
          "uid": "3206"
        },
        "free_bikes": 4,
        "id": "f91821d395298c1654b5890bdcb79bec",
        "latitude": 40.7311689,
        "longitude": -74.0575736,
        "name": "Hilltop",
        "timestamp": "2020-08-13T14:38:38.013000Z"
      },
      {
        "empty_slots": 5,
        "extra": {
          "address": null,
          "last_updated": 1597326414,
          "renting": 1,
          "returning": 1,
          "uid": "3205"
        },
        "free_bikes": 15,
        "id": "58e5869ea40267335ec90ba3540ac63e",
        "latitude": 40.71653978099194,
        "longitude": -74.0496379137039,
        "name": "JC Medical Center",
        "timestamp": "2020-08-13T14:38:38.014000Z"
      },
      {
        "empty_slots": 10,
        "extra": {
          "address": null,
          "last_updated": 1597325285,
          "renting": 1,
          "returning": 1,
          "uid": "3203"
        },
        "free_bikes": 16,
        "id": "f6d5f0d1ca571465c335d6970de828f0",
        "latitude": 40.727595966,
        "longitude": -74.044247311,
        "name": "Hamilton Park",
        "timestamp": "2020-08-13T14:38:38.016000Z"
      },
      {
        "empty_slots": 7,
        "extra": {
          "address": null,
          "last_updated": 1597326367,
          "renting": 1,
          "returning": 1,
          "uid": "3202"
        },
        "free_bikes": 11,
        "id": "3f07a543eef48fd465a0cbacb379de96",
        "latitude": 40.7272235,
        "longitude": -74.0337589,
        "name": "Newport PATH",
        "timestamp": "2020-08-13T14:38:38.024000Z"
      },
      {
        "empty_slots": 4,
        "extra": {
          "address": null,
          "last_updated": 1597328867,
          "renting": 1,
          "returning": 1,
          "uid": "3209"
        },
        "free_bikes": 18,
        "id": "6fd339c9f7f92b83b2e02cbfb93dd089",
        "latitude": 40.7241765,
        "longitude": -74.0506564,
        "name": "Brunswick St",
        "timestamp": "2020-08-13T14:38:38.038000Z"
      },
      {
        "empty_slots": 11,
        "extra": {
          "address": null,
          "last_updated": 1597324769,
          "renting": 1,
          "returning": 1,
          "uid": "3067"
        },
        "free_bikes": 14,
        "id": "cf31c0e43bed8ac4be38950b620f06d4",
        "latitude": 40.7016657,
        "longitude": -73.9437303,
        "name": "Broadway & Whipple St",
        "timestamp": "2020-08-13T14:38:38.064000Z"
      },
      {
        "empty_slots": 28,
        "extra": {
          "address": null,
          "last_updated": 1597326231,
          "renting": 1,
          "returning": 1,
          "uid": "239"
        },
        "free_bikes": 3,
        "id": "7e90c995b31039ca8d76eb029e79bd7b",
        "latitude": 40.69196566,
        "longitude": -73.9813018,
        "name": "Willoughby St & Fleet St",
        "timestamp": "2020-08-13T14:38:38.086000Z"
      },
      {
        "empty_slots": 9,
        "extra": {
          "address": null,
          "last_updated": 1597324514,
          "renting": 1,
          "returning": 1,
          "uid": "3638"
        },
        "free_bikes": 9,
        "id": "2455cde3408d55c05596f2c87ce2730e",
        "latitude": 40.7242941,
        "longitude": -74.0354826,
        "name": "Washington St",
        "timestamp": "2020-08-13T14:38:38.087000Z"
      },
      {
        "empty_slots": 19,
        "extra": {
          "address": null,
          "last_updated": 1597324674,
          "renting": 1,
          "returning": 1,
          "uid": "3639"
        },
        "free_bikes": 10,
        "id": "38db8a3f71cd3fa93df107ecc71582d7",
        "latitude": 40.7192517,
        "longitude": -74.034234,
        "name": "Harborside",
        "timestamp": "2020-08-13T14:38:38.088000Z"
      },
      {
        "empty_slots": 21,
        "extra": {
          "address": null,
          "last_updated": 1597328224,
          "renting": 1,
          "returning": 1,
          "uid": "3637"
        },
        "free_bikes": 10,
        "id": "bbd241a691b0736801b4a59ba16ee4fd",
        "latitude": 40.683238654603414,
        "longitude": -73.96599590778351,
        "name": "Fulton St & Waverly Ave",
        "timestamp": "2020-08-13T14:38:38.090000Z"
      },
      {
        "empty_slots": 4,
        "extra": {
          "address": null,
          "last_updated": 1597326911,
          "renting": 1,
          "returning": 1,
          "uid": "3721"
        },
        "free_bikes": 31,
        "id": "e59d4e19628c6e90bed3df77eb6d2ab1",
        "latitude": 40.7675487799971,
        "longitude": -73.9209334552288,
        "name": "31 St & Newtown Ave",
        "timestamp": "2020-08-13T14:38:38.092000Z"
      },
      {
        "empty_slots": 5,
        "extra": {
          "address": null,
          "last_updated": 1597328202,
          "renting": 1,
          "returning": 1,
          "uid": "3630"
        },
        "free_bikes": 28,
        "id": "87398d0a3d90499cda3701b0f02708ab",
        "latitude": 40.8038654,
        "longitude": -73.9559308,
        "name": "Frederick Douglass Blvd & W 115 St",
        "timestamp": "2020-08-13T14:38:38.096000Z"
      },
      {
        "empty_slots": 2,
        "extra": {
          "address": null,
          "last_updated": 1597326143,
          "renting": 1,
          "returning": 1,
          "uid": "3063"
        },
        "free_bikes": 17,
        "id": "a51071afa04ac7a5eb1157951a7c94da",
        "latitude": 40.69527008,
        "longitude": -73.95238108,
        "name": "Nostrand Ave & Myrtle Ave",
        "timestamp": "2020-08-13T14:38:38.097000Z"
      },
      {
        "empty_slots": 8,
        "extra": {
          "address": null,
          "last_updated": 1597327849,
          "renting": 1,
          "returning": 1,
          "uid": "3062"
        },
        "free_bikes": 14,
        "id": "b69d830a701a1fceb2a474097d48c449",
        "latitude": 40.69539817,
        "longitude": -73.94954908,
        "name": "Myrtle Ave & Marcy Ave",
        "timestamp": "2020-08-13T14:38:38.104000Z"
      },
      {
        "empty_slots": 15,
        "extra": {
          "address": null,
          "last_updated": 1597328059,
          "renting": 1,
          "returning": 1,
          "uid": "3061"
        },
        "free_bikes": 6,
        "id": "cf0e4540220f69ab4064080de80f2675",
        "latitude": 40.69622937,
        "longitude": -73.94371094,
        "name": "Throop Ave & Myrtle Ave",
        "timestamp": "2020-08-13T14:38:38.108000Z"
      },
      {
        "empty_slots": 30,
        "extra": {
          "address": null,
          "last_updated": 1597329198,
          "renting": 1,
          "returning": 1,
          "uid": "238"
        },
        "free_bikes": 1,
        "id": "663962dd5882cc2a3142fd1f4fc8fc9d",
        "latitude": 40.7361967,
        "longitude": -74.00859207,
        "name": "Bank St & Washington St",
        "timestamp": "2020-08-13T14:38:38.116000Z"
      },
      {
        "empty_slots": 4,
        "extra": {
          "address": null,
          "last_updated": 1597326021,
          "renting": 1,
          "returning": 1,
          "uid": "3066"
        },
        "free_bikes": 15,
        "id": "4abbc2e268d688c0c6d107b9a590529d",
        "latitude": 40.69957608,
        "longitude": -73.94708417,
        "name": "Tompkins Ave & Hopkins St",
        "timestamp": "2020-08-13T14:38:38.124000Z"
      },
      {
        "empty_slots": 7,
        "extra": {
          "address": null,
          "last_updated": 1597326184,
          "renting": 1,
          "returning": 1,
          "uid": "3065"
        },
        "free_bikes": 24,
        "id": "9190afca949ebaed2d792aa8b7f0eccc",
        "latitude": 40.70029511,
        "longitude": -73.95032283,
        "name": "Union Ave & Wallabout St",
        "timestamp": "2020-08-13T14:38:38.128000Z"
      },
      {
        "empty_slots": 17,
        "extra": {
          "address": null,
          "last_updated": 1597326373,
          "renting": 1,
          "returning": 1,
          "uid": "3064"
        },
        "free_bikes": 6,
        "id": "10beb163062519846cca3271f74b0d32",
        "latitude": 40.69681963,
        "longitude": -73.93756926,
        "name": "Myrtle Ave & Lewis Ave",
        "timestamp": "2020-08-13T14:38:38.129000Z"
      },
      {
        "empty_slots": 43,
        "extra": {
          "address": null,
          "last_updated": 1597326760,
          "renting": 1,
          "returning": 1,
          "uid": "236"
        },
        "free_bikes": 4,
        "id": "b21e633356b3d8ae185b2a1dc4eb18a6",
        "latitude": 40.7284186,
        "longitude": -73.98713956,
        "name": "St Marks Pl & 2 Ave",
        "timestamp": "2020-08-13T14:38:38.148000Z"
      },
      {
        "empty_slots": 16,
        "extra": {
          "address": null,
          "last_updated": 1597327720,
          "renting": 1,
          "returning": 1,
          "uid": "237"
        },
        "free_bikes": 22,
        "id": "0fd8cebc0d498547b876d1e83d5e1350",
        "latitude": 40.73047309,
        "longitude": -73.98672378,
        "name": "E 11 St & 2 Ave",
        "timestamp": "2020-08-13T14:38:38.146000Z"
      },
      {
        "empty_slots": 22,
        "extra": {
          "address": null,
          "last_updated": 1597322022,
          "renting": 1,
          "returning": 1,
          "uid": "3069"
        },
        "free_bikes": 7,
        "id": "df8f52e24c61a15be77c2c6dd3e6e3fb",
        "latitude": 40.70411791,
        "longitude": -73.94818595,
        "name": "Lorimer St & Broadway",
        "timestamp": "2020-08-13T14:38:38.142000Z"
      },
      {
        "empty_slots": 15,
        "extra": {
          "address": null,
          "last_updated": 1597323510,
          "renting": 1,
          "returning": 1,
          "uid": "3348"
        },
        "free_bikes": 3,
        "id": "0a0d9d6e93abd05548c672b60bfa9099",
        "latitude": 40.677236,
        "longitude": -74.015665,
        "name": "Coffey St & Conover St",
        "timestamp": "2020-08-13T14:38:38.156000Z"
      },
      {
        "empty_slots": 2,
        "extra": {
          "address": null,
          "last_updated": 1597321236,
          "renting": 1,
          "returning": 1,
          "uid": "3068"
        },
        "free_bikes": 39,
        "id": "5d17ca9635db0c7f367743b299010296",
        "latitude": 40.7031724,
        "longitude": -73.940636,
        "name": "Humboldt St & Varet St",
        "timestamp": "2020-08-13T14:38:38.164000Z"
      },
      {
        "empty_slots": 17,
        "extra": {
          "address": null,
          "last_updated": 1597322463,
          "renting": 1,
          "returning": 1,
          "uid": "3342"
        },
        "free_bikes": 6,
        "id": "f3429c91fe2ab4d84ff2dc15caa59076",
        "latitude": 40.6777748,
        "longitude": -74.0094613,
        "name": "Pioneer St & Richards St",
        "timestamp": "2020-08-13T14:38:38.169000Z"
      },
      {
        "empty_slots": 13,
        "extra": {
          "address": null,
          "last_updated": 1597323762,
          "renting": 1,
          "returning": 1,
          "uid": "3340"
        },
        "free_bikes": 8,
        "id": "d06e6498c31efd64e51222f1f718eb33",
        "latitude": 40.6753274,
        "longitude": -74.0100698,
        "name": "Wolcott St & Dwight St",
        "timestamp": "2020-08-13T14:38:38.174000Z"
      },
      {
        "empty_slots": 2,
        "extra": {
          "address": null,
          "last_updated": 1597324555,
          "renting": 1,
          "returning": 1,
          "uid": "3347"
        },
        "free_bikes": 17,
        "id": "c2c6d7385a8c127c4ed83d66f868d6d5",
        "latitude": 40.6773429,
        "longitude": -74.01275056,
        "name": "Van Brunt St & Wolcott St",
        "timestamp": "2020-08-13T14:38:38.180000Z"
      },
      {
        "empty_slots": 3,
        "extra": {
          "address": null,
          "last_updated": 1597327195,
          "renting": 1,
          "returning": 1,
          "uid": "3344"
        },
        "free_bikes": 16,
        "id": "4081ac99ac6fa036539a136ea8bcc645",
        "latitude": 40.679043,
        "longitude": -74.011169,
        "name": "Pioneer St & Van Brunt St",
        "timestamp": "2020-08-13T14:38:38.188000Z"
      },
      {
        "empty_slots": 0,
        "extra": {
          "address": null,
          "last_updated": 1597327057,
          "renting": 1,
          "returning": 1,
          "uid": "3345"
        },
        "free_bikes": 34,
        "id": "b21117016c7231dac03f524390e2e8db",
        "latitude": 40.78948541553215,
        "longitude": -73.95242929458618,
        "name": "Madison Ave & E 99 St",
        "timestamp": "2020-08-13T14:38:38.189000Z"
      },
      {
        "empty_slots": 11,
        "extra": {
          "address": null,
          "last_updated": 1597326703,
          "renting": 1,
          "returning": 1,
          "uid": "146"
        },
        "free_bikes": 27,
        "id": "03a01504efc5cf418c8001828a179cf3",
        "latitude": 40.71625008,
        "longitude": -74.0091059,
        "name": "Hudson St & Reade St",
        "timestamp": "2020-08-13T14:38:38.200000Z"
      },
      {
        "empty_slots": 2,
        "extra": {
          "address": null,
          "last_updated": 1597328075,
          "renting": 1,
          "returning": 1,
          "uid": "143"
        },
        "free_bikes": 22,
        "id": "d840ae5054d55060af7786d28bc291f8",
        "latitude": 40.69239502,
        "longitude": -73.99337909,
        "name": "Clinton St & Joralemon St",
        "timestamp": "2020-08-13T14:38:38.206000Z"
      },
      {
        "empty_slots": 11,
        "extra": {
          "address": null,
          "last_updated": 1597329285,
          "renting": 1,
          "returning": 1,
          "uid": "3708"
        },
        "free_bikes": 18,
        "id": "461f47defcc688ad14984bb186072d6d",
        "latitude": 40.735445,
        "longitude": -73.99431,
        "name": "W 13 St & 5 Ave",
        "timestamp": "2020-08-13T14:38:38.217000Z"
      },
      {
        "empty_slots": 16,
        "extra": {
          "address": null,
          "last_updated": 1597329315,
          "renting": 1,
          "returning": 1,
          "uid": "3349"
        },
        "free_bikes": 14,
        "id": "6e5169f9d5f9300507feeb3bff4a9c7e",
        "latitude": 40.6729679,
        "longitude": -73.97087984,
        "name": "Grand Army Plaza & Plaza St West",
        "timestamp": "2020-08-13T14:38:38.218000Z"
      },
      {
        "empty_slots": 13,
        "extra": {
          "address": null,
          "last_updated": 1597322626,
          "renting": 1,
          "returning": 1,
          "uid": "3704"
        },
        "free_bikes": 6,
        "id": "ff2ae7535e4713928b83a5e8fabcae8d",
        "latitude": 40.7437524099784,
        "longitude": -73.94176483154297,
        "name": "47 Ave & Skillman Ave",
        "timestamp": "2020-08-13T14:38:38.228000Z"
      },
      {
        "empty_slots": 12,
        "extra": {
          "address": null,
          "last_updated": 1597328449,
          "renting": 1,
          "returning": 1,
          "uid": "3119"
        },
        "free_bikes": 33,
        "id": "4bbbed23270a34498c42e1188dcbe9bc",
        "latitude": 40.74232744,
        "longitude": -73.95411749,
        "name": "Vernon Blvd & 50 Ave",
        "timestamp": "2020-08-13T14:38:38.229000Z"
      },
      {
        "empty_slots": 8,
        "extra": {
          "address": null,
          "last_updated": 1597327780,
          "renting": 1,
          "returning": 1,
          "uid": "3118"
        },
        "free_bikes": 33,
        "id": "29bfff7d2e0648f6c010fc519dd1f711",
        "latitude": 40.73555,
        "longitude": -73.95284,
        "name": "McGuinness Blvd & Eagle St",
        "timestamp": "2020-08-13T14:38:38.230000Z"
      },
      {
        "empty_slots": 14,
        "extra": {
          "address": null,
          "last_updated": 1597327669,
          "renting": 1,
          "returning": 1,
          "uid": "3117"
        },
        "free_bikes": 10,
        "id": "10bae30699dc4d002884eaffadbc9f15",
        "latitude": 40.73564,
        "longitude": -73.95866,
        "name": "Franklin St & Dupont St",
        "timestamp": "2020-08-13T14:38:38.236000Z"
      },
      {
        "empty_slots": 8,
        "extra": {
          "address": null,
          "last_updated": 1597328712,
          "renting": 1,
          "returning": 1,
          "uid": "3116"
        },
        "free_bikes": 27,
        "id": "6d13d9037c6875ffda7ad6d678f86f09",
        "latitude": 40.73266,
        "longitude": -73.95826,
        "name": "Huron St & Franklin St",
        "timestamp": "2020-08-13T14:38:38.240000Z"
      },
      {
        "empty_slots": 8,
        "extra": {
          "address": null,
          "last_updated": 1597329246,
          "renting": 1,
          "returning": 1,
          "uid": "3112"
        },
        "free_bikes": 24,
        "id": "e256cfe16e29d02ca42a0bcb84bc57ac",
        "latitude": 40.72906,
        "longitude": -73.95779,
        "name": "Milton St & Franklin St",
        "timestamp": "2020-08-13T14:38:38.248000Z"
      },
      {
        "empty_slots": 16,
        "extra": {
          "address": null,
          "last_updated": 1597326673,
          "renting": 1,
          "returning": 1,
          "uid": "3110"
        },
        "free_bikes": 11,
        "id": "63bf84b2b0a1701aa1744fce5ba51690",
        "latitude": 40.72708584,
        "longitude": -73.95299117,
        "name": "Meserole Ave & Manhattan Ave",
        "timestamp": "2020-08-13T14:38:38.253000Z"
      },
      {
        "empty_slots": 0,
        "extra": {
          "address": null,
          "last_updated": 1597326689,
          "renting": 1,
          "returning": 1,
          "uid": "3593"
        },
        "free_bikes": 35,
        "id": "7275a0e7a9cbe5a5c6fb72acf3fe9a28",
        "latitude": 40.761584,
        "longitude": -73.925921,
        "name": "31 St & Broadway",
        "timestamp": "2020-08-13T14:38:38.254000Z"
      },
      {
        "empty_slots": 4,
        "extra": {
          "address": null,
          "last_updated": 1597327452,
          "renting": 1,
          "returning": 1,
          "uid": "3592"
        },
        "free_bikes": 14,
        "id": "64a28a2c71b7707dbd658fb016f44d85",
        "latitude": 40.7633589,
        "longitude": -73.9286471,
        "name": "Crescent St & Broadway",
        "timestamp": "2020-08-13T14:38:38.255000Z"
      },
      {
        "empty_slots": 8,
        "extra": {
          "address": null,
          "last_updated": 1597327420,
          "renting": 1,
          "returning": 1,
          "uid": "3416"
        },
        "free_bikes": 16,
        "id": "a5c4f1fcc7d877dbfe8b983ad6648b81",
        "latitude": 40.6776147,
        "longitude": -73.97324283,
        "name": "7 Ave & Park Pl",
        "timestamp": "2020-08-13T14:38:38.260000Z"
      },
      {
        "empty_slots": 16,
        "extra": {
          "address": null,
          "last_updated": 1597328261,
          "renting": 1,
          "returning": 1,
          "uid": "3409"
        },
        "free_bikes": 19,
        "id": "9a8d2b588b89023dde9d5d833a86c107",
        "latitude": 40.6867443,
        "longitude": -73.99063168,
        "name": "Bergen St & Smith St",
        "timestamp": "2020-08-13T14:38:38.264000Z"
      },
      {
        "empty_slots": 29,
        "extra": {
          "address": null,
          "last_updated": 1597329250,
          "renting": 1,
          "returning": 1,
          "uid": "499"
        },
        "free_bikes": 7,
        "id": "1668abce94bbe7e395f856cd5354d6f5",
        "latitude": 40.76915505,
        "longitude": -73.98191841,
        "name": "Broadway & W 60 St",
        "timestamp": "2020-08-13T14:38:38.272000Z"
      },
      {
        "empty_slots": 6,
        "extra": {
          "address": null,
          "last_updated": 1597325220,
          "renting": 1,
          "returning": 1,
          "uid": "3410"
        },
        "free_bikes": 25,
        "id": "b8f8ebf2786573a65dd5c0703e7e956c",
        "latitude": 40.6864442,
        "longitude": -73.98759104,
        "name": "Dean St & Hoyt St",
        "timestamp": "2020-08-13T14:38:38.276000Z"
      },
      {
        "empty_slots": 18,
        "extra": {
          "address": null,
          "last_updated": 1597325940,
          "renting": 1,
          "returning": 1,
          "uid": "3411"
        },
        "free_bikes": 9,
        "id": "e357bb5c3c85cb16915cc4aaf70ee742",
        "latitude": 40.6849668,
        "longitude": -73.98620772,
        "name": "Bond St & Bergen St",
        "timestamp": "2020-08-13T14:38:38.278000Z"
      },
      {
        "empty_slots": 57,
        "extra": {
          "address": null,
          "last_updated": 1597327846,
          "renting": 1,
          "returning": 1,
          "uid": "494"
        },
        "free_bikes": 8,
        "id": "dabac5845132c41694f7b7243771be23",
        "latitude": 40.74734825,
        "longitude": -73.99723551,
        "name": "W 26 St & 8 Ave",
        "timestamp": "2020-08-13T14:38:38.279000Z"
      },
      {
        "empty_slots": 35,
        "extra": {
          "address": null,
          "last_updated": 1597328083,
          "renting": 1,
          "returning": 1,
          "uid": "496"
        },
        "free_bikes": 30,
        "id": "37d6fbbf8cb6fd3bf3beaa5a186357c8",
        "latitude": 40.73726186,
        "longitude": -73.99238967,
        "name": "E 16 St & 5 Ave",
        "timestamp": "2020-08-13T14:38:38.284000Z"
      },
      {
        "empty_slots": 35,
        "extra": {
          "address": null,
          "last_updated": 1597329184,
          "renting": 1,
          "returning": 1,
          "uid": "497"
        },
        "free_bikes": 30,
        "id": "d1b6694ed4b8695d2b684733007a490a",
        "latitude": 40.73704984,
        "longitude": -73.99009296,
        "name": "E 17 St & Broadway",
        "timestamp": "2020-08-13T14:38:38.288000Z"
      },
      {
        "empty_slots": 57,
        "extra": {
          "address": null,
          "last_updated": 1597328693,
          "renting": 1,
          "returning": 1,
          "uid": "490"
        },
        "free_bikes": 9,
        "id": "1fbe49774ee13a3230d9e7d7ff38fc72",
        "latitude": 40.751551,
        "longitude": -73.993934,
        "name": "8 Ave & W 33 St",
        "timestamp": "2020-08-13T14:38:38.289000Z"
      },
      {
        "empty_slots": 62,
        "extra": {
          "address": null,
          "last_updated": 1597327458,
          "renting": 1,
          "returning": 1,
          "uid": "492"
        },
        "free_bikes": 4,
        "id": "b864db0e186553361941da1d830546ad",
        "latitude": 40.75019995,
        "longitude": -73.99093085,
        "name": "W 33 St & 7 Ave",
        "timestamp": "2020-08-13T14:38:38.292000Z"
      },
      {
        "empty_slots": 3,
        "extra": {
          "address": null,
          "last_updated": 1597328286,
          "renting": 1,
          "returning": 1,
          "uid": "493"
        },
        "free_bikes": 30,
        "id": "2a89151b439326763137281188f46e7f",
        "latitude": 40.7568001,
        "longitude": -73.98291153,
        "name": "W 45 St & 6 Ave",
        "timestamp": "2020-08-13T14:38:38.296000Z"
      },
      {
        "empty_slots": 0,
        "extra": {
          "address": null,
          "last_updated": 1597329429,
          "renting": 1,
          "returning": 1,
          "uid": "3795"
        },
        "free_bikes": 18,
        "id": "ccc896fa086291ae165b2f06b0320d4a",
        "latitude": 40.671907,
        "longitude": -73.993612,
        "name": "10 St & 2 Ave",
        "timestamp": "2020-08-13T14:38:38.312000Z"
      },
      {
        "empty_slots": 25,
        "extra": {
          "address": null,
          "last_updated": 1597324846,
          "renting": 1,
          "returning": 1,
          "uid": "3791"
        },
        "free_bikes": 7,
        "id": "f6bfa1354cdaffd45b300d23b6c7615a",
        "latitude": 40.73520838045357,
        "longitude": -74.04696375131607,
        "name": "Hoboken Ave at Monmouth St",
        "timestamp": "2020-08-13T14:38:38.313000Z"
      },
      {
        "empty_slots": 28,
        "extra": {
          "address": null,
          "last_updated": 1597328870,
          "renting": 0,
          "returning": 0,
          "uid": "3790"
        },
        "free_bikes": 9,
        "id": "f1f2bee911363f224c77a971752f2575",
        "latitude": 40.7003,
        "longitude": -73.991581,
        "name": "Henry St & Middagh St",
        "timestamp": "2020-08-13T14:38:38.314000Z"
      },
      {
        "empty_slots": 19,
        "extra": {
          "address": null,
          "last_updated": 1597324688,
          "renting": 1,
          "returning": 1,
          "uid": "3792"
        },
        "free_bikes": 10,
        "id": "544206a68c5989f811f266f240ba6df7",
        "latitude": 40.71687,
        "longitude": -74.03281,
        "name": "Columbus Dr at Exchange Pl",
        "timestamp": "2020-08-13T14:38:38.316000Z"
      },
      {
        "empty_slots": 47,
        "extra": {
          "address": null,
          "last_updated": 1597327838,
          "renting": 1,
          "returning": 1,
          "uid": "405"
        },
        "free_bikes": 4,
        "id": "b21bbe51d3f2d4bcf1e4279932a11c08",
        "latitude": 40.739323,
        "longitude": -74.008119,
        "name": "Washington St & Gansevoort St",
        "timestamp": "2020-08-13T14:38:38.321000Z"
      },
      {
        "empty_slots": 26,
        "extra": {
          "address": null,
          "last_updated": 1597329275,
          "renting": 1,
          "returning": 1,
          "uid": "403"
        },
        "free_bikes": 5,
        "id": "621ec9ac66bd4c40dc362b44d951d3c3",
        "latitude": 40.72502876,
        "longitude": -73.99069656,
        "name": "E 2 St & 2 Ave",
        "timestamp": "2020-08-13T14:38:38.325000Z"
      },
      {
        "empty_slots": 0,
        "extra": {
          "address": null,
          "last_updated": 1597329130,
          "renting": 1,
          "returning": 1,
          "uid": "402"
        },
        "free_bikes": 18,
        "id": "460d8b0f421b6e1692efa59cc7ddaa0a",
        "latitude": 40.7403432,
        "longitude": -73.98955109,
        "name": "Broadway & E 22 St",
        "timestamp": "2020-08-13T14:38:38.326000Z"
      },
      {
        "empty_slots": 35,
        "extra": {
          "address": null,
          "last_updated": 1597328061,
          "renting": 1,
          "returning": 1,
          "uid": "401"
        },
        "free_bikes": 7,
        "id": "da5a7b1ea0523c9a02baca5ae8deb0e4",
        "latitude": 40.72019576,
        "longitude": -73.98997825,
        "name": "Allen St & Rivington St",
        "timestamp": "2020-08-13T14:38:38.332000Z"
      },
      {
        "empty_slots": 4,
        "extra": {
          "address": null,
          "last_updated": 1597325990,
          "renting": 1,
          "returning": 1,
          "uid": "400"
        },
        "free_bikes": 10,
        "id": "920d706f6e3c6da6f67868353b5434ae",
        "latitude": 40.71926081,
        "longitude": -73.98178024,
        "name": "Pitt St & Stanton St",
        "timestamp": "2020-08-13T14:38:38.337000Z"
      },
      {
        "empty_slots": 5,
        "extra": {
          "address": null,
          "last_updated": 1597327389,
          "renting": 1,
          "returning": 1,
          "uid": "2017"
        },
        "free_bikes": 33,
        "id": "191db385e7013389b6c929d1cb05a1c1",
        "latitude": 40.75022392,
        "longitude": -73.97121414,
        "name": "E 43 St & 2 Ave",
        "timestamp": "2020-08-13T14:38:38.338000Z"
      },
      {
        "empty_slots": 8,
        "extra": {
          "address": null,
          "last_updated": 1597329386,
          "renting": 1,
          "returning": 1,
          "uid": "408"
        },
        "free_bikes": 15,
        "id": "867565660402c4c853537f75c91f6482",
        "latitude": 40.71076228,
        "longitude": -73.99400398,
        "name": "Market St & Cherry St",
        "timestamp": "2020-08-13T14:38:38.344000Z"
      },
      {
        "empty_slots": 10,
        "extra": {
          "address": null,
          "last_updated": 1597325941,
          "renting": 1,
          "returning": 1,
          "uid": "3598"
        },
        "free_bikes": 9,
        "id": "7d28ffda6e5853fa016073299ea57f63",
        "latitude": 40.7595701,
        "longitude": -73.9142678,
        "name": "Newton Rd & 44 St",
        "timestamp": "2020-08-13T14:38:38.360000Z"
      },
      {
        "empty_slots": 13,
        "extra": {
          "address": null,
          "last_updated": 1597327151,
          "renting": 1,
          "returning": 1,
          "uid": "3562"
        },
        "free_bikes": 14,
        "id": "33e202d889fac316c1a1d726c3b884cf",
        "latitude": 40.6765198,
        "longitude": -73.9596082,
        "name": "Classon Ave & St Marks Ave",
        "timestamp": "2020-08-13T14:38:38.420000Z"
      },
      {
        "empty_slots": 24,
        "extra": {
          "address": null,
          "last_updated": 1597327081,
          "renting": 1,
          "returning": 1,
          "uid": "3563"
        },
        "free_bikes": 4,
        "id": "7246c9d4ac2c9ff0f583423e1960a5c1",
        "latitude": 40.757186,
        "longitude": -73.932719,
        "name": "28 St & 36 Ave",
        "timestamp": "2020-08-13T14:38:38.422000Z"
      },
      {
        "empty_slots": 10,
        "extra": {
          "address": null,
          "last_updated": 1597328181,
          "renting": 1,
          "returning": 1,
          "uid": "3249"
        },
        "free_bikes": 7,
        "id": "7f1e0d4bd55a3d36902826327850c7f4",
        "latitude": 40.6803560840434,
        "longitude": -73.9476791024208,
        "name": "Verona Pl & Fulton St",
        "timestamp": "2020-08-13T14:38:38.423000Z"
      },
      {
        "empty_slots": 5,
        "extra": {
          "address": null,
          "last_updated": 1597321465,
          "renting": 1,
          "returning": 1,
          "uid": "3561"
        },
        "free_bikes": 20,
        "id": "723bd1b30046f966525befd16df1276a",
        "latitude": 40.7531106,
        "longitude": -73.9279917,
        "name": "37 Ave & 35 St",
        "timestamp": "2020-08-13T14:38:38.428000Z"
      },
      {
        "empty_slots": 16,
        "extra": {
          "address": null,
          "last_updated": 1597325042,
          "renting": 1,
          "returning": 1,
          "uid": "3566"
        },
        "free_bikes": 9,
        "id": "8c04d3a3a6d1c111bab5db559d401a7e",
        "latitude": 40.7596276,
        "longitude": -73.9321455,
        "name": "Crescent St & 35 Ave",
        "timestamp": "2020-08-13T14:38:38.432000Z"
      },
      {
        "empty_slots": 6,
        "extra": {
          "address": null,
          "last_updated": 1597313929,
          "renting": 1,
          "returning": 1,
          "uid": "3567"
        },
        "free_bikes": 13,
        "id": "5940b443d8e199926176e919545a8fdc",
        "latitude": 40.7627442,
        "longitude": -73.9391141,
        "name": "11 St & 35 Ave",
        "timestamp": "2020-08-13T14:38:38.433000Z"
      },
      {
        "empty_slots": 5,
        "extra": {
          "address": null,
          "last_updated": 1597325525,
          "renting": 1,
          "returning": 1,
          "uid": "3564"
        },
        "free_bikes": 14,
        "id": "57ed6148bed3c8647f9ce825c88051ce",
        "latitude": 40.7601853,
        "longitude": -73.9362726,
        "name": "21 St & 36 Ave",
        "timestamp": "2020-08-13T14:38:38.434000Z"
      },
      {
        "empty_slots": 19,
        "extra": {
          "address": null,
          "last_updated": 1597323661,
          "renting": 1,
          "returning": 1,
          "uid": "3565"
        },
        "free_bikes": 0,
        "id": "4c29f2b86862def0267a5c26f5309630",
        "latitude": 40.7614376,
        "longitude": -73.9411265,
        "name": "36 Ave & 10 St",
        "timestamp": "2020-08-13T14:38:38.443000Z"
      },
      {
        "empty_slots": 28,
        "extra": {
          "address": null,
          "last_updated": 1597326591,
          "renting": 1,
          "returning": 1,
          "uid": "3243"
        },
        "free_bikes": 1,
        "id": "251ef46abd56304d0269aada535b8fab",
        "latitude": 40.75892386377695,
        "longitude": -73.96226227283478,
        "name": "E 58 St & 1 Ave (NE Corner)",
        "timestamp": "2020-08-13T14:38:38.444000Z"
      },
      {
        "empty_slots": 34,
        "extra": {
          "address": null,
          "last_updated": 1597326008,
          "renting": 1,
          "returning": 1,
          "uid": "3242"
        },
        "free_bikes": 5,
        "id": "7e86a14259485ee6b343ecb839378c60",
        "latitude": 40.69102925677968,
        "longitude": -73.99183362722397,
        "name": "Schermerhorn St & Court St",
        "timestamp": "2020-08-13T14:38:38.448000Z"
      },
      {
        "empty_slots": 10,
        "extra": {
          "address": null,
          "last_updated": 1597328661,
          "renting": 1,
          "returning": 1,
          "uid": "3241"
        },
        "free_bikes": 8,
        "id": "e5f5c621a5435d2c4d68293befe114f5",
        "latitude": 40.686203,
        "longitude": -73.944694,
        "name": "Monroe St & Tompkins Ave",
        "timestamp": "2020-08-13T14:38:38.449000Z"
      },
      {
        "empty_slots": 20,
        "extra": {
          "address": null,
          "last_updated": 1597327864,
          "renting": 1,
          "returning": 1,
          "uid": "3569"
        },
        "free_bikes": 8,
        "id": "07d590106453c2c2cda0ef86d3e7a4c1",
        "latitude": 40.6758324,
        "longitude": -73.9561677,
        "name": "Franklin Ave & St Marks Ave",
        "timestamp": "2020-08-13T14:38:38.450000Z"
      },
      {
        "empty_slots": 34,
        "extra": {
          "address": null,
          "last_updated": 1597328734,
          "renting": 1,
          "returning": 1,
          "uid": "3244"
        },
        "free_bikes": 8,
        "id": "fe3aafbae1ab143a0c86515efde67b45",
        "latitude": 40.73143724085228,
        "longitude": -73.99490341544151,
        "name": "University Pl & E 8 St",
        "timestamp": "2020-08-13T14:38:38.457000Z"
      },
      {
        "empty_slots": 0,
        "extra": {
          "address": null,
          "last_updated": 1597326242,
          "renting": 1,
          "returning": 1,
          "uid": "373"
        },
        "free_bikes": 19,
        "id": "c58d768ea95146699edc7248d885d383",
        "latitude": 40.69331716,
        "longitude": -73.95381995,
        "name": "Willoughby Ave & Walworth St",
        "timestamp": "2020-08-13T14:38:38.496000Z"
      },
      {
        "empty_slots": 16,
        "extra": {
          "address": null,
          "last_updated": 1597327109,
          "renting": 1,
          "returning": 1,
          "uid": "372"
        },
        "free_bikes": 11,
        "id": "abc69ed93b17d3f2c7afa573c83f0057",
        "latitude": 40.694546087246025,
        "longitude": -73.95801365375519,
        "name": "Franklin Ave & Myrtle Ave",
        "timestamp": "2020-08-13T14:38:38.502000Z"
      },
      {
        "empty_slots": 16,
        "extra": {
          "address": null,
          "last_updated": 1597329317,
          "renting": 1,
          "returning": 1,
          "uid": "377"
        },
        "free_bikes": 30,
        "id": "b9554e8c88f31e91bc9ee6ec37a5eeab",
        "latitude": 40.72243797,
        "longitude": -74.00566443,
        "name": "6 Ave & Canal St",
        "timestamp": "2020-08-13T14:38:38.505000Z"
      },
      {
        "empty_slots": 14,
        "extra": {
          "address": null,
          "last_updated": 1597328992,
          "renting": 1,
          "returning": 1,
          "uid": "376"
        },
        "free_bikes": 29,
        "id": "55f82beb526f29b488d66723b99a8c80",
        "latitude": 40.70862144,
        "longitude": -74.00722156,
        "name": "John St & William St",
        "timestamp": "2020-08-13T14:38:38.508000Z"
      },
      {
        "empty_slots": 22,
        "extra": {
          "address": null,
          "last_updated": 1597329173,
          "renting": 1,
          "returning": 1,
          "uid": "393"
        },
        "free_bikes": 14,
        "id": "caef5a46df93c1ba257d03e77b8875d4",
        "latitude": 40.72299208,
        "longitude": -73.97995466,
        "name": "E 5 St & Avenue C",
        "timestamp": "2020-08-13T14:38:38.511000Z"
      },
      {
        "empty_slots": 2,
        "extra": {
          "address": null,
          "last_updated": 1597326030,
          "renting": 1,
          "returning": 1,
          "uid": "392"
        },
        "free_bikes": 31,
        "id": "d2eae25ea2488985eaf12a0cf0f90bef",
        "latitude": 40.695065,
        "longitude": -73.987167,
        "name": "Jay St & Tech Pl",
        "timestamp": "2020-08-13T14:38:38.524000Z"
      },
      {
        "empty_slots": 28,
        "extra": {
          "address": null,
          "last_updated": 1597326650,
          "renting": 1,
          "returning": 1,
          "uid": "391"
        },
        "free_bikes": 3,
        "id": "76bd063656c96f0b178fab20d0ba38f6",
        "latitude": 40.69760127,
        "longitude": -73.99344559,
        "name": "Clark St & Henry St",
        "timestamp": "2020-08-13T14:38:38.528000Z"
      },
      {
        "empty_slots": 12,
        "extra": {
          "address": null,
          "last_updated": 1597324624,
          "renting": 1,
          "returning": 1,
          "uid": "390"
        },
        "free_bikes": 18,
        "id": "867f8f82cb432da3ebd0aec92530a23d",
        "latitude": 40.69221589,
        "longitude": -73.9842844,
        "name": "Duffield St & Willoughby St",
        "timestamp": "2020-08-13T14:38:38.531000Z"
      },
      {
        "empty_slots": 23,
        "extra": {
          "address": null,
          "last_updated": 1597327394,
          "renting": 1,
          "returning": 1,
          "uid": "397"
        },
        "free_bikes": 4,
        "id": "bf831b072f5bab65d5a12de0a2a426be",
        "latitude": 40.68415748,
        "longitude": -73.96922273,
        "name": "Fulton St & Clermont Ave",
        "timestamp": "2020-08-13T14:38:38.533000Z"
      },
      {
        "empty_slots": 18,
        "extra": {
          "address": null,
          "last_updated": 1597325135,
          "renting": 1,
          "returning": 1,
          "uid": "396"
        },
        "free_bikes": 7,
        "id": "355c5191d078ff9f5a4b14f033ae21de",
        "latitude": 40.680342423,
        "longitude": -73.9557689392,
        "name": "Lefferts Pl & Franklin Ave",
        "timestamp": "2020-08-13T14:38:38.534000Z"
      },
      {
        "empty_slots": 8,
        "extra": {
          "address": null,
          "last_updated": 1597326352,
          "renting": 1,
          "returning": 1,
          "uid": "3308"
        },
        "free_bikes": 19,
        "id": "9ec33afe72f6a70dbf6ff6bae8e7d4f9",
        "latitude": 40.6861758,
        "longitude": -73.99645295,
        "name": "Kane St & Clinton St",
        "timestamp": "2020-08-13T14:38:38.536000Z"
      },
      {
        "empty_slots": 5,
        "extra": {
          "address": null,
          "last_updated": 1597328617,
          "renting": 1,
          "returning": 1,
          "uid": "394"
        },
        "free_bikes": 29,
        "id": "02c41dad36a8b93e2b1c99e55e460703",
        "latitude": 40.72521311,
        "longitude": -73.97768752,
        "name": "E 9 St & Avenue C",
        "timestamp": "2020-08-13T14:38:38.537000Z"
      },
      {
        "empty_slots": 5,
        "extra": {
          "address": null,
          "last_updated": 1597326214,
          "renting": 1,
          "returning": 1,
          "uid": "82"
        },
        "free_bikes": 22,
        "id": "c777d2de6259e5d7a8092f8a9ec2f197",
        "latitude": 40.71117416,
        "longitude": -74.00016545,
        "name": "St James Pl & Pearl St",
        "timestamp": "2020-08-13T14:38:38.538000Z"
      },
      {
        "empty_slots": 11,
        "extra": {
          "address": null,
          "last_updated": 1597326865,
          "renting": 1,
          "returning": 1,
          "uid": "83"
        },
        "free_bikes": 50,
        "id": "b34976c728b08c32118a701422920d23",
        "latitude": 40.68382604,
        "longitude": -73.97632328,
        "name": "Atlantic Ave & Fort Greene Pl",
        "timestamp": "2020-08-13T14:38:38.544000Z"
      },
      {
        "empty_slots": 18,
        "extra": {
          "address": null,
          "last_updated": 1597327125,
          "renting": 1,
          "returning": 1,
          "uid": "399"
        },
        "free_bikes": 8,
        "id": "668bd328d1337cb7e4d0910dd424d856",
        "latitude": 40.68851534,
        "longitude": -73.9647628,
        "name": "Lafayette Ave & St James Pl",
        "timestamp": "2020-08-13T14:38:38.552000Z"
      },
      {
        "empty_slots": 22,
        "extra": {
          "address": null,
          "last_updated": 1597326445,
          "renting": 1,
          "returning": 1,
          "uid": "398"
        },
        "free_bikes": 6,
        "id": "751012f449f2e3dd3ff3e518b3ef3e3e",
        "latitude": 40.69165183,
        "longitude": -73.9999786,
        "name": "Atlantic Ave & Furman St",
        "timestamp": "2020-08-13T14:38:38.557000Z"
      },
      {
        "empty_slots": 19,
        "extra": {
          "address": null,
          "last_updated": 1597325629,
          "renting": 1,
          "returning": 1,
          "uid": "3302"
        },
        "free_bikes": 3,
        "id": "5b04234fe2f954f067061341e0fdf055",
        "latitude": 40.7969347,
        "longitude": -73.9643412291,
        "name": "Columbus Ave & W 103 St",
        "timestamp": "2020-08-13T14:38:38.560000Z"
      },
      {
        "empty_slots": 20,
        "extra": {
          "address": null,
          "last_updated": 1597326740,
          "renting": 1,
          "returning": 1,
          "uid": "3303"
        },
        "free_bikes": 5,
        "id": "366690b096fe22c9fbbf95088d1fa0da",
        "latitude": 40.6849894,
        "longitude": -73.99440329,
        "name": "Butler St & Court St",
        "timestamp": "2020-08-13T14:38:38.566000Z"
      },
      {
        "empty_slots": 19,
        "extra": {
          "address": null,
          "last_updated": 1597325405,
          "renting": 1,
          "returning": 1,
          "uid": "3300"
        },
        "free_bikes": 5,
        "id": "8ddfa6df18ee02eb60a70acdfdff93dd",
        "latitude": 40.66514681533792,
        "longitude": -73.97637605667114,
        "name": "Prospect Park West & 8 St",
        "timestamp": "2020-08-13T14:38:38.568000Z"
      },
      {
        "empty_slots": 29,
        "extra": {
          "address": null,
          "last_updated": 1597328341,
          "renting": 1,
          "returning": 1,
          "uid": "3301"
        },
        "free_bikes": 10,
        "id": "37b8a8e76d99cf861aa9a2c68fdfe41f",
        "latitude": 40.7919557,
        "longitude": -73.968087,
        "name": "Columbus Ave & W 95 St",
        "timestamp": "2020-08-13T14:38:38.571000Z"
      },
      {
        "empty_slots": 0,
        "extra": {
          "address": null,
          "last_updated": 1597327836,
          "renting": 1,
          "returning": 1,
          "uid": "3648"
        },
        "free_bikes": 25,
        "id": "a8e4749c71546b114fdd015fbdcb9279",
        "latitude": 40.697950315695444,
        "longitude": -73.97077560424805,
        "name": "Flushing Ave & Vanderbilt Ave",
        "timestamp": "2020-08-13T14:38:38.598000Z"
      },
      {
        "empty_slots": 18,
        "extra": {
          "address": null,
          "last_updated": 1597328373,
          "renting": 1,
          "returning": 1,
          "uid": "3664"
        },